{
  "cities": [
    {
      "id": 1,
      "city": "Algiers",
      "country": "Algeria",
      "continent": "Africa",
      "jan": 11.2,
      "feb": 11.5,
      "mar": 13.6,
      "apr": 15.6,
      "may": 18.8,
      "jun": 22.6,
      "jul": 25.7,
      "aug": 26.6,
      "sep": 23.9,
      "oct": 20.4,
      "nov": 15.7,
      "dec": 12.6,
      "yearly_avg": 18.2,
      "lat": 36.7538,
      "lng": 3.0588
    },
    {
      "id": 2,
      "city": "Tamanrasset",
      "country": "Algeria",
      "continent": "Africa",
      "jan": 12.8,
      "feb": 15.0,
      "mar": 18.1,
      "apr": 22.2,
      "may": 26.1,
      "jun": 28.9,
      "jul": 28.7,
      "aug": 28.2,
      "sep": 26.5,
      "oct": 22.4,
      "nov": 17.3,
      "dec": 13.9,
      "yearly_avg": 21.7,
      "lat": 22.785,
      "lng": 5.5228
    },
    {
      "id": 3,
      "city": "Reggane",
      "country": "Algeria",
      "continent": "Africa",
      "jan": 16.0,
      "feb": 18.2,
      "mar": 23.1,
      "apr": 27.9,
      "may": 32.2,
      "jun": 36.4,
      "jul": 39.8,
      "aug": 38.4,
      "sep": 35.5,
      "oct": 29.2,
      "nov": 22.0,
      "dec": 17.8,
      "yearly_avg": 28.3,
      "lat": 26.7167,
      "lng": 0.1667
    },
    {
      "id": 4,
      "city": "Luanda",
      "country": "Angola",
      "continent": "Africa",
      "jan": 26.7,
      "feb": 28.5,
      "mar": 28.6,
      "apr": 28.2,
      "may": 27.0,
      "jun": 23.9,
      "jul": 22.1,
      "aug": 22.1,
      "sep": 23.5,
      "oct": 25.2,
      "nov": 26.7,
      "dec": 26.9,
      "yearly_avg": 25.8,
      "lat": -8.839,
      "lng": 13.2894
    },
    {
      "id": 5,
      "city": "Cotonou",
      "country": "Benin",
      "continent": "Africa",
      "jan": 27.3,
      "feb": 28.5,
      "mar": 28.9,
      "apr": 28.6,
      "may": 27.8,
      "jun": 26.5,
      "jul": 25.8,
      "aug": 25.6,
      "sep": 26.0,
      "oct": 26.7,
      "nov": 27.6,
      "dec": 27.3,
      "yearly_avg": 27.2,
      "lat": 6.3654,
      "lng": 2.4183
    },
    {
      "id": 9,
      "city": "Gaborone",
      "country": "Botswana",
      "continent": "Africa",
      "jan": 25.7,
      "feb": 25.2,
      "mar": 23.8,
      "apr": 20.6,
      "may": 16.8,
      "jun": 13.7,
      "jul": 13.5,
      "aug": 16.9,
      "sep": 21.2,
      "oct": 24.0,
      "nov": 24.7,
      "dec": 25.3,
      "yearly_avg": 20.9,
      "lat": -24.6282,
      "lng": 25.9231
    },
    {
      "id": 11,
      "city": "Ouagadougou",
      "country": "Burkina Faso",
      "continent": "Africa",
      "jan": 24.8,
      "feb": 27.7,
      "mar": 30.9,
      "apr": 32.6,
      "may": 31.6,
      "jun": 29.2,
      "jul": 27.3,
      "aug": 26.4,
      "sep": 27.0,
      "oct": 28.9,
      "nov": 27.7,
      "dec": 25.1,
      "yearly_avg": 28.3,
      "lat": 12.3714,
      "lng": -1.5197
    },
    {
      "id": 13,
      "city": "Bujumbura",
      "country": "Burundi",
      "continent": "Africa",
      "jan": 23.8,
      "feb": 23.8,
      "mar": 23.7,
      "apr": 23.9,
      "may": 23.9,
      "jun": 23.3,
      "jul": 22.9,
      "aug": 24.0,
      "sep": 24.7,
      "oct": 24.6,
      "nov": 23.4,
      "dec": 23.6,
      "yearly_avg": 23.8,
      "lat": -3.3614,
      "lng": 29.3599
    },
    {
      "id": 16,
      "city": "Douala",
      "country": "Cameroon",
      "continent": "Africa",
      "jan": 27.5,
      "feb": 28.1,
      "mar": 27.8,
      "apr": 27.6,
      "may": 27.2,
      "jun": 26.2,
      "jul": 25.1,
      "aug": 24.9,
      "sep": 25.6,
      "oct": 26.1,
      "nov": 26.9,
      "dec": 27.2,
      "yearly_avg": 26.7,
      "lat": 4.0511,
      "lng": 9.7679
    },
    {
      "id": 17,
      "city": "Yaound\u00e9",
      "country": "Cameroon",
      "continent": "Africa",
      "jan": 23.7,
      "feb": 25.3,
      "mar": 25.0,
      "apr": 24.6,
      "may": 24.1,
      "jun": 23.4,
      "jul": 22.6,
      "aug": 23.0,
      "sep": 23.1,
      "oct": 23.3,
      "nov": 23.7,
      "dec": 23.7,
      "yearly_avg": 23.8,
      "lat": 3.848,
      "lng": 11.5021
    },
    {
      "id": 18,
      "city": "Praia",
      "country": "Cape Verde",
      "continent": "Africa",
      "jan": 22.4,
      "feb": 22.2,
      "mar": 22.9,
      "apr": 23.4,
      "may": 24.0,
      "jun": 24.9,
      "jul": 25.4,
      "aug": 26.2,
      "sep": 26.8,
      "oct": 26.4,
      "nov": 25.4,
      "dec": 23.4,
      "yearly_avg": 24.4,
      "lat": 14.9315,
      "lng": -23.5087
    },
    {
      "id": 19,
      "city": "Bangui",
      "country": "Central African Republic",
      "continent": "Africa",
      "jan": 26.0,
      "feb": 27.1,
      "mar": 27.4,
      "apr": 27.1,
      "may": 26.5,
      "jun": 25.3,
      "jul": 25.1,
      "aug": 25.1,
      "sep": 25.4,
      "oct": 25.5,
      "nov": 25.7,
      "dec": 25.7,
      "yearly_avg": 26.0,
      "lat": 4.3947,
      "lng": 18.5582
    },
    {
      "id": 21,
      "city": "N'Djamena",
      "country": "Chad",
      "continent": "Africa",
      "jan": 23.3,
      "feb": 26.9,
      "mar": 30.4,
      "apr": 33.8,
      "may": 33.5,
      "jun": 31.0,
      "jul": 28.2,
      "aug": 26.5,
      "sep": 27.8,
      "oct": 29.2,
      "nov": 27.3,
      "dec": 24.0,
      "yearly_avg": 28.3,
      "lat": 12.1348,
      "lng": 15.0557
    },
    {
      "id": 22,
      "city": "Ab\u00e9ch\u00e9",
      "country": "Chad",
      "continent": "Africa",
      "jan": 26.8,
      "feb": 28.1,
      "mar": 31.2,
      "apr": 33.3,
      "may": 33.2,
      "jun": 32.2,
      "jul": 28.7,
      "aug": 27.0,
      "sep": 28.4,
      "oct": 30.0,
      "nov": 28.5,
      "dec": 25.9,
      "yearly_avg": 29.4,
      "lat": 13.8292,
      "lng": 20.8324
    },
    {
      "id": 23,
      "city": "Kinshasa",
      "country": "Democratic Republic of the Congo",
      "continent": "Africa",
      "jan": 26.0,
      "feb": 26.2,
      "mar": 26.7,
      "apr": 26.8,
      "may": 26.0,
      "jun": 23.7,
      "jul": 22.2,
      "aug": 23.5,
      "sep": 25.3,
      "oct": 26.0,
      "nov": 25.9,
      "dec": 25.6,
      "yearly_avg": 25.3,
      "lat": -4.4419,
      "lng": 15.2663
    },
    {
      "id": 25,
      "city": "Djibouti",
      "country": "Djibouti",
      "continent": "Africa",
      "jan": 25.1,
      "feb": 25.7,
      "mar": 27.0,
      "apr": 28.7,
      "may": 31.0,
      "jun": 34.2,
      "jul": 36.4,
      "aug": 36.0,
      "sep": 33.1,
      "oct": 29.3,
      "nov": 26.9,
      "dec": 25.4,
      "yearly_avg": 29.9,
      "lat": 11.5721,
      "lng": 43.1456
    },
    {
      "id": 26,
      "city": "Cairo",
      "country": "Egypt",
      "continent": "Africa",
      "jan": 13.6,
      "feb": 14.9,
      "mar": 16.9,
      "apr": 21.2,
      "may": 24.5,
      "jun": 27.3,
      "jul": 27.6,
      "aug": 27.4,
      "sep": 26.0,
      "oct": 23.3,
      "nov": 18.9,
      "dec": 15.0,
      "yearly_avg": 21.4,
      "lat": 30.0444,
      "lng": 31.2357
    },
    {
      "id": 27,
      "city": "Alexandria",
      "country": "Egypt",
      "continent": "Africa",
      "jan": 13.4,
      "feb": 13.9,
      "mar": 15.7,
      "apr": 18.5,
      "may": 21.2,
      "jun": 24.3,
      "jul": 25.9,
      "aug": 26.3,
      "sep": 25.1,
      "oct": 22.0,
      "nov": 18.7,
      "dec": 14.9,
      "yearly_avg": 20.0,
      "lat": 31.2001,
      "lng": 29.9187
    },
    {
      "id": 29,
      "city": "Malabo",
      "country": "Equatorial Guinea",
      "continent": "Africa",
      "jan": 26.9,
      "feb": 27.7,
      "mar": 27.6,
      "apr": 27.2,
      "may": 26.7,
      "jun": 25.9,
      "jul": 25.3,
      "aug": 25.0,
      "sep": 25.1,
      "oct": 25.5,
      "nov": 26.1,
      "dec": 26.6,
      "yearly_avg": 26.3,
      "lat": 3.7504,
      "lng": 8.7371
    },
    {
      "id": 30,
      "city": "Asmara",
      "country": "Eritrea",
      "continent": "Africa",
      "jan": 13.8,
      "feb": 14.9,
      "mar": 16.3,
      "apr": 17.0,
      "may": 17.6,
      "jun": 17.6,
      "jul": 16.3,
      "aug": 16.1,
      "sep": 15.7,
      "oct": 14.9,
      "nov": 14.0,
      "dec": 13.2,
      "yearly_avg": 15.6,
      "lat": 15.3229,
      "lng": 38.9251
    },
    {
      "id": 31,
      "city": "Assab",
      "country": "Eritrea",
      "continent": "Africa",
      "jan": 26.3,
      "feb": 26.7,
      "mar": 28.5,
      "apr": 30.5,
      "may": 32.0,
      "jun": 33.1,
      "jul": 35.0,
      "aug": 34.6,
      "sep": 32.9,
      "oct": 31.2,
      "nov": 28.8,
      "dec": 26.9,
      "yearly_avg": 30.5,
      "lat": 13.0092,
      "lng": 42.7394
    },
    {
      "id": 33,
      "city": "Addis Ababa",
      "country": "Ethiopia",
      "continent": "Africa",
      "jan": 16.0,
      "feb": 16.8,
      "mar": 17.8,
      "apr": 17.8,
      "may": 18.2,
      "jun": 16.8,
      "jul": 15.5,
      "aug": 15.6,
      "sep": 16.1,
      "oct": 16.1,
      "nov": 15.4,
      "dec": 15.2,
      "yearly_avg": 16.4,
      "lat": 8.9806,
      "lng": 38.7578
    },
    {
      "id": 34,
      "city": "Libreville",
      "country": "Gabon",
      "continent": "Africa",
      "jan": 26.8,
      "feb": 27.0,
      "mar": 27.1,
      "apr": 26.6,
      "may": 26.7,
      "jun": 25.4,
      "jul": 24.3,
      "aug": 24.3,
      "sep": 25.4,
      "oct": 25.7,
      "nov": 25.9,
      "dec": 26.2,
      "yearly_avg": 25.9,
      "lat": 0.4162,
      "lng": 9.4673
    },
    {
      "id": 37,
      "city": "Accra",
      "country": "Ghana",
      "continent": "Africa",
      "jan": 27.3,
      "feb": 27.7,
      "mar": 27.7,
      "apr": 27.7,
      "may": 27.2,
      "jun": 25.6,
      "jul": 24.4,
      "aug": 24.3,
      "sep": 25.2,
      "oct": 26.0,
      "nov": 27.0,
      "dec": 27.2,
      "yearly_avg": 26.4,
      "lat": 5.6037,
      "lng": -0.187
    },
    {
      "id": 40,
      "city": "Conakry",
      "country": "Guinea",
      "continent": "Africa",
      "jan": 26.1,
      "feb": 26.5,
      "mar": 27.0,
      "apr": 27.4,
      "may": 27.5,
      "jun": 26.5,
      "jul": 25.5,
      "aug": 25.2,
      "sep": 25.6,
      "oct": 26.3,
      "nov": 27.0,
      "dec": 26.6,
      "yearly_avg": 26.4,
      "lat": 9.6412,
      "lng": -13.5784
    },
    {
      "id": 42,
      "city": "Bissau",
      "country": "Guinea-Bissau",
      "continent": "Africa",
      "jan": 24.4,
      "feb": 25.6,
      "mar": 26.6,
      "apr": 27.0,
      "may": 27.5,
      "jun": 26.9,
      "jul": 26.1,
      "aug": 26.4,
      "sep": 26.4,
      "oct": 27.0,
      "nov": 26.9,
      "dec": 24.8,
      "yearly_avg": 26.3,
      "lat": 11.8037,
      "lng": -15.1804
    },
    {
      "id": 47,
      "city": "Mombasa",
      "country": "Kenya",
      "continent": "Africa",
      "jan": 27.6,
      "feb": 28.1,
      "mar": 28.3,
      "apr": 27.6,
      "may": 26.2,
      "jun": 24.8,
      "jul": 24.0,
      "aug": 24.0,
      "sep": 24.7,
      "oct": 25.7,
      "nov": 26.9,
      "dec": 27.4,
      "yearly_avg": 26.3,
      "lat": -4.0435,
      "lng": 39.6682
    },
    {
      "id": 48,
      "city": "Nairobi",
      "country": "Kenya",
      "continent": "Africa",
      "jan": 18.0,
      "feb": 18.8,
      "mar": 19.4,
      "apr": 19.2,
      "may": 17.8,
      "jun": 16.3,
      "jul": 15.6,
      "aug": 15.9,
      "sep": 17.3,
      "oct": 18.5,
      "nov": 18.4,
      "dec": 18.1,
      "yearly_avg": 17.8,
      "lat": -1.2921,
      "lng": 36.8219
    },
    {
      "id": 49,
      "city": "Garissa",
      "country": "Kenya",
      "continent": "Africa",
      "jan": 29.7,
      "feb": 30.6,
      "mar": 31.4,
      "apr": 30.7,
      "may": 29.6,
      "jun": 27.9,
      "jul": 27.4,
      "aug": 27.6,
      "sep": 28.4,
      "oct": 29.7,
      "nov": 29.9,
      "dec": 29.2,
      "yearly_avg": 29.3,
      "lat": -0.4536,
      "lng": 39.6401
    },
    {
      "id": 50,
      "city": "Lodwar",
      "country": "Kenya",
      "continent": "Africa",
      "jan": 28.7,
      "feb": 29.6,
      "mar": 30.1,
      "apr": 29.6,
      "may": 29.7,
      "jun": 29.1,
      "jul": 28.4,
      "aug": 28.7,
      "sep": 29.6,
      "oct": 30.1,
      "nov": 29.1,
      "dec": 28.5,
      "yearly_avg": 29.3,
      "lat": 3.1167,
      "lng": 35.6
    },
    {
      "id": 51,
      "city": "Tripoli",
      "country": "Libya",
      "continent": "Africa",
      "jan": 12.7,
      "feb": 13.9,
      "mar": 15.3,
      "apr": 18.7,
      "may": 21.9,
      "jun": 25.3,
      "jul": 26.7,
      "aug": 27.7,
      "sep": 26.2,
      "oct": 21.5,
      "nov": 16.8,
      "dec": 13.9,
      "yearly_avg": 20.1,
      "lat": 32.8872,
      "lng": 13.1913
    },
    {
      "id": 52,
      "city": "Benghazi",
      "country": "Libya",
      "continent": "Africa",
      "jan": 12.5,
      "feb": 13.2,
      "mar": 14.9,
      "apr": 18.7,
      "may": 22.5,
      "jun": 25.5,
      "jul": 25.9,
      "aug": 26.5,
      "sep": 25.1,
      "oct": 22.1,
      "nov": 18.2,
      "dec": 14.1,
      "yearly_avg": 19.9,
      "lat": 32.1194,
      "lng": 20.0867
    },
    {
      "id": 55,
      "city": "Antananarivo",
      "country": "Madagascar",
      "continent": "Africa",
      "jan": 20.5,
      "feb": 20.7,
      "mar": 20.1,
      "apr": 19.2,
      "may": 16.8,
      "jun": 14.6,
      "jul": 14.1,
      "aug": 14.5,
      "sep": 16.3,
      "oct": 18.5,
      "nov": 19.7,
      "dec": 20.2,
      "yearly_avg": 17.9,
      "lat": -18.8792,
      "lng": 47.5079
    },
    {
      "id": 62,
      "city": "S\u00e9gou",
      "country": "Mali",
      "continent": "Africa",
      "jan": 25.3,
      "feb": 28.2,
      "mar": 31.5,
      "apr": 34.0,
      "may": 34.1,
      "jun": 31.9,
      "jul": 28.9,
      "aug": 27.6,
      "sep": 28.4,
      "oct": 30.1,
      "nov": 29.0,
      "dec": 26.2,
      "yearly_avg": 29.6,
      "lat": 13.4317,
      "lng": -6.2658
    },
    {
      "id": 64,
      "city": "Bamako",
      "country": "Mali",
      "continent": "Africa",
      "jan": 25.1,
      "feb": 27.8,
      "mar": 30.2,
      "apr": 31.6,
      "may": 31.4,
      "jun": 29.1,
      "jul": 26.8,
      "aug": 26.1,
      "sep": 26.6,
      "oct": 27.7,
      "nov": 26.5,
      "dec": 24.8,
      "yearly_avg": 27.8,
      "lat": 12.6392,
      "lng": -8.0029
    },
    {
      "id": 66,
      "city": "Nouakchott",
      "country": "Mauritania",
      "continent": "Africa",
      "jan": 21.5,
      "feb": 23.0,
      "mar": 24.2,
      "apr": 24.3,
      "may": 25.8,
      "jun": 26.7,
      "jul": 27.3,
      "aug": 28.4,
      "sep": 29.6,
      "oct": 28.8,
      "nov": 25.8,
      "dec": 22.8,
      "yearly_avg": 25.7,
      "lat": 18.0735,
      "lng": -15.9582
    },
    {
      "id": 69,
      "city": "Marrakesh",
      "country": "Morocco",
      "continent": "Africa",
      "jan": 12.2,
      "feb": 13.8,
      "mar": 15.8,
      "apr": 17.3,
      "may": 20.6,
      "jun": 23.8,
      "jul": 28.3,
      "aug": 28.3,
      "sep": 25.3,
      "oct": 21.1,
      "nov": 16.3,
      "dec": 12.6,
      "yearly_avg": 19.6,
      "lat": 31.6295,
      "lng": -7.9811
    },
    {
      "id": 71,
      "city": "Maputo",
      "country": "Mozambique",
      "continent": "Africa",
      "jan": 26.3,
      "feb": 26.2,
      "mar": 25.6,
      "apr": 23.5,
      "may": 21.4,
      "jun": 18.9,
      "jul": 18.8,
      "aug": 20.0,
      "sep": 21.5,
      "oct": 22.4,
      "nov": 23.8,
      "dec": 25.5,
      "yearly_avg": 22.8,
      "lat": -25.9692,
      "lng": 32.5732
    },
    {
      "id": 72,
      "city": "Niamey",
      "country": "Niger",
      "continent": "Africa",
      "jan": 24.3,
      "feb": 27.3,
      "mar": 30.9,
      "apr": 33.8,
      "may": 34.0,
      "jun": 31.5,
      "jul": 29.0,
      "aug": 27.9,
      "sep": 29.0,
      "oct": 30.8,
      "nov": 27.9,
      "dec": 25.0,
      "yearly_avg": 29.3,
      "lat": 13.5137,
      "lng": 2.1098
    },
    {
      "id": 73,
      "city": "Lagos",
      "country": "Nigeria",
      "continent": "Africa",
      "jan": 27.3,
      "feb": 28.5,
      "mar": 28.5,
      "apr": 28.0,
      "may": 27.1,
      "jun": 25.6,
      "jul": 25.3,
      "aug": 25.1,
      "sep": 25.5,
      "oct": 26.4,
      "nov": 27.2,
      "dec": 27.2,
      "yearly_avg": 26.8,
      "lat": 6.5244,
      "lng": 3.3792
    },
    {
      "id": 76,
      "city": "Kano",
      "country": "Nigeria",
      "continent": "Africa",
      "jan": 21.2,
      "feb": 24.4,
      "mar": 28.7,
      "apr": 31.3,
      "may": 30.9,
      "jun": 28.2,
      "jul": 26.2,
      "aug": 25.5,
      "sep": 26.6,
      "oct": 27.3,
      "nov": 24.6,
      "dec": 21.6,
      "yearly_avg": 26.4,
      "lat": 12.0022,
      "lng": 8.592
    },
    {
      "id": 78,
      "city": "Brazzaville",
      "country": "Republic of the Congo",
      "continent": "Africa",
      "jan": 26.0,
      "feb": 26.4,
      "mar": 26.7,
      "apr": 26.8,
      "may": 26.2,
      "jun": 23.8,
      "jul": 22.4,
      "aug": 23.6,
      "sep": 25.5,
      "oct": 26.1,
      "nov": 25.9,
      "dec": 25.8,
      "yearly_avg": 25.4,
      "lat": -4.2634,
      "lng": 15.2429
    },
    {
      "id": 81,
      "city": "Dakar",
      "country": "Senegal",
      "continent": "Africa",
      "jan": 22.3,
      "feb": 21.6,
      "mar": 21.8,
      "apr": 22.1,
      "may": 23.5,
      "jun": 26.2,
      "jul": 27.7,
      "aug": 28.0,
      "sep": 28.1,
      "oct": 28.4,
      "nov": 26.8,
      "dec": 24.5,
      "yearly_avg": 25.1,
      "lat": 14.7167,
      "lng": -17.4677
    },
    {
      "id": 83,
      "city": "Bosaso",
      "country": "Somalia",
      "continent": "Africa",
      "jan": 25.0,
      "feb": 25.0,
      "mar": 26.7,
      "apr": 28.8,
      "may": 31.1,
      "jun": 35.6,
      "jul": 35.6,
      "aug": 36.1,
      "sep": 33.3,
      "oct": 27.8,
      "nov": 25.6,
      "dec": 25.6,
      "yearly_avg": 30.0,
      "lat": 11.2756,
      "lng": 49.1878
    },
    {
      "id": 85,
      "city": "Mogadishu",
      "country": "Somalia",
      "continent": "Africa",
      "jan": 26.6,
      "feb": 26.9,
      "mar": 28.0,
      "apr": 28.9,
      "may": 28.2,
      "jun": 26.7,
      "jul": 25.4,
      "aug": 25.9,
      "sep": 26.5,
      "oct": 27.3,
      "nov": 27.5,
      "dec": 26.9,
      "yearly_avg": 27.1,
      "lat": 2.0469,
      "lng": 45.3182
    },
    {
      "id": 86,
      "city": "Pretoria",
      "country": "South Africa",
      "continent": "Africa",
      "jan": 22.6,
      "feb": 22.1,
      "mar": 21.0,
      "apr": 17.9,
      "may": 14.7,
      "jun": 11.5,
      "jul": 11.9,
      "aug": 14.7,
      "sep": 18.6,
      "oct": 20.1,
      "nov": 21.0,
      "dec": 21.9,
      "yearly_avg": 18.2,
      "lat": -25.7479,
      "lng": 28.2293
    },
    {
      "id": 87,
      "city": "Cape Town",
      "country": "South Africa",
      "continent": "Africa",
      "jan": 20.4,
      "feb": 20.4,
      "mar": 19.2,
      "apr": 16.9,
      "may": 14.4,
      "jun": 12.5,
      "jul": 11.9,
      "aug": 12.4,
      "sep": 13.7,
      "oct": 15.6,
      "nov": 17.9,
      "dec": 19.5,
      "yearly_avg": 16.2,
      "lat": -33.9249,
      "lng": 18.4241
    },
    {
      "id": 88,
      "city": "Johannesburg",
      "country": "South Africa",
      "continent": "Africa",
      "jan": 19.5,
      "feb": 19.0,
      "mar": 18.0,
      "apr": 15.3,
      "may": 12.6,
      "jun": 9.6,
      "jul": 10.0,
      "aug": 12.5,
      "sep": 15.9,
      "oct": 17.1,
      "nov": 17.9,
      "dec": 19.0,
      "yearly_avg": 15.5,
      "lat": -26.2041,
      "lng": 28.0473
    },
    {
      "id": 91,
      "city": "Durban",
      "country": "South Africa",
      "continent": "Africa",
      "jan": 24.1,
      "feb": 24.3,
      "mar": 23.7,
      "apr": 21.6,
      "may": 19.1,
      "jun": 16.6,
      "jul": 16.5,
      "aug": 17.7,
      "sep": 19.2,
      "oct": 20.1,
      "nov": 21.4,
      "dec": 23.1,
      "yearly_avg": 20.6,
      "lat": -29.8587,
      "lng": 31.0218
    },
    {
      "id": 92,
      "city": "Juba",
      "country": "South Sudan",
      "continent": "Africa",
      "jan": 28.3,
      "feb": 29.5,
      "mar": 29.9,
      "apr": 29.2,
      "may": 27.9,
      "jun": 26.9,
      "jul": 25.9,
      "aug": 26.1,
      "sep": 26.8,
      "oct": 27.5,
      "nov": 27.6,
      "dec": 27.7,
      "yearly_avg": 27.8,
      "lat": 4.8594,
      "lng": 31.5713
    },
    {
      "id": 96,
      "city": "Khartoum",
      "country": "Sudan",
      "continent": "Africa",
      "jan": 23.2,
      "feb": 25.0,
      "mar": 28.7,
      "apr": 31.9,
      "may": 34.5,
      "jun": 34.3,
      "jul": 32.1,
      "aug": 31.5,
      "sep": 32.5,
      "oct": 32.4,
      "nov": 28.1,
      "dec": 24.5,
      "yearly_avg": 29.9,
      "lat": 15.5007,
      "lng": 32.5599
    },
    {
      "id": 97,
      "city": "Dar es Salaam",
      "country": "Tanzania",
      "continent": "Africa",
      "jan": 27.4,
      "feb": 27.7,
      "mar": 27.4,
      "apr": 26.5,
      "may": 25.5,
      "jun": 24.2,
      "jul": 23.5,
      "aug": 23.7,
      "sep": 24.3,
      "oct": 25.3,
      "nov": 26.3,
      "dec": 27.3,
      "yearly_avg": 25.8,
      "lat": -6.7924,
      "lng": 39.2083
    },
    {
      "id": 100,
      "city": "Dodoma",
      "country": "Tanzania",
      "continent": "Africa",
      "jan": 23.8,
      "feb": 23.0,
      "mar": 23.5,
      "apr": 22.8,
      "may": 22.1,
      "jun": 21.4,
      "jul": 19.8,
      "aug": 20.5,
      "sep": 22.3,
      "oct": 23.8,
      "nov": 25.1,
      "dec": 24.6,
      "yearly_avg": 22.7,
      "lat": -6.163,
      "lng": 35.7516
    },
    {
      "id": 101,
      "city": "Lom\u00e9",
      "country": "Togo",
      "continent": "Africa",
      "jan": 27.1,
      "feb": 28.2,
      "mar": 28.5,
      "apr": 28.2,
      "may": 27.4,
      "jun": 26.2,
      "jul": 25.3,
      "aug": 25.2,
      "sep": 25.8,
      "oct": 26.6,
      "nov": 27.3,
      "dec": 27.1,
      "yearly_avg": 26.9,
      "lat": 6.1256,
      "lng": 1.2254
    },
    {
      "id": 103,
      "city": "Tunis",
      "country": "Tunisia",
      "continent": "Africa",
      "jan": 11.5,
      "feb": 12.0,
      "mar": 13.2,
      "apr": 15.6,
      "may": 19.3,
      "jun": 23.2,
      "jul": 26.3,
      "aug": 26.8,
      "sep": 24.4,
      "oct": 20.4,
      "nov": 15.9,
      "dec": 12.5,
      "yearly_avg": 18.4,
      "lat": 36.8065,
      "lng": 10.1815
    },
    {
      "id": 105,
      "city": "Kampala",
      "country": "Uganda",
      "continent": "Africa",
      "jan": 23.2,
      "feb": 23.7,
      "mar": 23.4,
      "apr": 22.9,
      "may": 22.6,
      "jun": 22.4,
      "jul": 22.0,
      "aug": 22.2,
      "sep": 22.6,
      "oct": 22.6,
      "nov": 22.5,
      "dec": 22.7,
      "yearly_avg": 22.7,
      "lat": 0.3476,
      "lng": 32.5825
    },
    {
      "id": 108,
      "city": "Lusaka",
      "country": "Zambia",
      "continent": "Africa",
      "jan": 21.5,
      "feb": 21.5,
      "mar": 21.1,
      "apr": 19.9,
      "may": 17.4,
      "jun": 15.2,
      "jul": 14.9,
      "aug": 17.3,
      "sep": 21.3,
      "oct": 23.5,
      "nov": 23.4,
      "dec": 21.7,
      "yearly_avg": 19.9,
      "lat": -15.3875,
      "lng": 28.3228
    },
    {
      "id": 110,
      "city": "Harare",
      "country": "Zimbabwe",
      "continent": "Africa",
      "jan": 21.0,
      "feb": 20.7,
      "mar": 20.3,
      "apr": 18.8,
      "may": 16.1,
      "jun": 13.7,
      "jul": 13.4,
      "aug": 15.5,
      "sep": 18.6,
      "oct": 20.8,
      "nov": 21.2,
      "dec": 20.9,
      "yearly_avg": 18.4,
      "lat": -17.8252,
      "lng": 31.0335
    },
    {
      "id": 112,
      "city": "Kabul",
      "country": "Afghanistan",
      "continent": "Asia",
      "jan": -2.3,
      "feb": -0.7,
      "mar": 6.3,
      "apr": 12.8,
      "may": 17.3,
      "jun": 22.8,
      "jul": 25.0,
      "aug": 24.1,
      "sep": 19.7,
      "oct": 13.1,
      "nov": 5.9,
      "dec": 0.6,
      "yearly_avg": 12.1,
      "lat": 34.5553,
      "lng": 69.2075
    },
    {
      "id": 113,
      "city": "Baku",
      "country": "Azerbaijan",
      "continent": "Asia",
      "jan": 4.4,
      "feb": 4.2,
      "mar": 7.0,
      "apr": 12.9,
      "may": 18.5,
      "jun": 23.5,
      "jul": 26.4,
      "aug": 26.3,
      "sep": 22.5,
      "oct": 16.6,
      "nov": 11.2,
      "dec": 7.3,
      "yearly_avg": 15.1,
      "lat": 40.4093,
      "lng": 49.8671
    },
    {
      "id": 114,
      "city": "Yerevan",
      "country": "Armenia",
      "continent": "Asia",
      "jan": -3.6,
      "feb": 0.1,
      "mar": 6.3,
      "apr": 12.9,
      "may": 17.4,
      "jun": 22.6,
      "jul": 26.4,
      "aug": 26.1,
      "sep": 21.1,
      "oct": 13.8,
      "nov": 6.2,
      "dec": -0.2,
      "yearly_avg": 12.4,
      "lat": 40.1792,
      "lng": 44.4991
    },
    {
      "id": 115,
      "city": "Manama",
      "country": "Bahrain",
      "continent": "Asia",
      "jan": 17.2,
      "feb": 18.0,
      "mar": 21.2,
      "apr": 25.3,
      "may": 30.0,
      "jun": 32.6,
      "jul": 34.1,
      "aug": 34.2,
      "sep": 32.5,
      "oct": 29.3,
      "nov": 24.5,
      "dec": 19.3,
      "yearly_avg": 26.5,
      "lat": 26.2285,
      "lng": 50.586
    },
    {
      "id": 116,
      "city": "Dhaka",
      "country": "Bangladesh",
      "continent": "Asia",
      "jan": 18.6,
      "feb": 22.0,
      "mar": 26.3,
      "apr": 28.4,
      "may": 28.8,
      "jun": 29.0,
      "jul": 28.7,
      "aug": 28.9,
      "sep": 28.5,
      "oct": 27.4,
      "nov": 24.0,
      "dec": 20.0,
      "yearly_avg": 25.9,
      "lat": 23.8103,
      "lng": 90.4125
    },
    {
      "id": 118,
      "city": "Chittagong",
      "country": "Bangladesh",
      "continent": "Asia",
      "jan": 19.8,
      "feb": 22.3,
      "mar": 25.7,
      "apr": 27.9,
      "may": 28.6,
      "jun": 28.4,
      "jul": 27.9,
      "aug": 28.1,
      "sep": 28.3,
      "oct": 27.7,
      "nov": 24.9,
      "dec": 21.2,
      "yearly_avg": 25.9,
      "lat": 22.3569,
      "lng": 91.7832
    },
    {
      "id": 119,
      "city": "Phnom Penh",
      "country": "Cambodia",
      "continent": "Asia",
      "jan": 26.6,
      "feb": 28.0,
      "mar": 29.4,
      "apr": 30.2,
      "may": 30.0,
      "jun": 29.2,
      "jul": 28.7,
      "aug": 28.5,
      "sep": 28.2,
      "oct": 27.2,
      "nov": 27.1,
      "dec": 26.3,
      "yearly_avg": 28.3,
      "lat": 11.5564,
      "lng": 104.9282
    },
    {
      "id": 120,
      "city": "Beijing",
      "country": "China",
      "continent": "Asia",
      "jan": -3.1,
      "feb": 0.3,
      "mar": 6.7,
      "apr": 14.8,
      "may": 20.8,
      "jun": 24.9,
      "jul": 26.7,
      "aug": 25.5,
      "sep": 20.8,
      "oct": 13.7,
      "nov": 5.0,
      "dec": -0.9,
      "yearly_avg": 12.9,
      "lat": 39.9042,
      "lng": 116.4074
    },
    {
      "id": 122,
      "city": "Chongqing",
      "country": "China",
      "continent": "Asia",
      "jan": 8.0,
      "feb": 10.1,
      "mar": 14.0,
      "apr": 18.8,
      "may": 22.8,
      "jun": 25.3,
      "jul": 28.5,
      "aug": 28.6,
      "sep": 24.3,
      "oct": 18.7,
      "nov": 14.3,
      "dec": 9.3,
      "yearly_avg": 18.6,
      "lat": 29.4316,
      "lng": 106.9123
    },
    {
      "id": 123,
      "city": "Guangzhou",
      "country": "China",
      "continent": "Asia",
      "jan": 13.9,
      "feb": 15.2,
      "mar": 18.1,
      "apr": 22.4,
      "may": 25.8,
      "jun": 27.8,
      "jul": 28.9,
      "aug": 28.8,
      "sep": 27.5,
      "oct": 24.7,
      "nov": 20.1,
      "dec": 15.5,
      "yearly_avg": 22.4,
      "lat": 23.1291,
      "lng": 113.2644
    },
    {
      "id": 124,
      "city": "Harbin",
      "country": "China",
      "continent": "Asia",
      "jan": -17.6,
      "feb": -12.1,
      "mar": -2.7,
      "apr": 7.7,
      "may": 15.4,
      "jun": 21.4,
      "jul": 23.3,
      "aug": 21.8,
      "sep": 15.4,
      "oct": 6.8,
      "nov": -4.6,
      "dec": -14.4,
      "yearly_avg": 5.0,
      "lat": 45.8038,
      "lng": 126.535
    },
    {
      "id": 125,
      "city": "Kunming",
      "country": "China",
      "continent": "Asia",
      "jan": 9.1,
      "feb": 11.4,
      "mar": 14.5,
      "apr": 17.7,
      "may": 19.4,
      "jun": 20.5,
      "jul": 20.3,
      "aug": 20.0,
      "sep": 18.5,
      "oct": 16.0,
      "nov": 12.3,
      "dec": 9.2,
      "yearly_avg": 15.7,
      "lat": 25.0389,
      "lng": 102.7183
    },
    {
      "id": 126,
      "city": "Lhasa",
      "country": "China",
      "continent": "Asia",
      "jan": -2.1,
      "feb": 1.1,
      "mar": 4.6,
      "apr": 8.1,
      "may": 11.9,
      "jun": 15.5,
      "jul": 15.3,
      "aug": 14.5,
      "sep": 12.8,
      "oct": 8.1,
      "nov": 2.2,
      "dec": -1.7,
      "yearly_avg": 7.6,
      "lat": 29.65,
      "lng": 91.1
    },
    {
      "id": 127,
      "city": "Shanghai",
      "country": "China",
      "continent": "Asia",
      "jan": 4.6,
      "feb": 6.1,
      "mar": 9.6,
      "apr": 15.1,
      "may": 20.3,
      "jun": 24.1,
      "jul": 28.4,
      "aug": 28.1,
      "sep": 24.4,
      "oct": 19.3,
      "nov": 13.4,
      "dec": 7.1,
      "yearly_avg": 16.7,
      "lat": 31.2304,
      "lng": 121.4737
    },
    {
      "id": 129,
      "city": "\u00dcr\u00fcmqi",
      "country": "China",
      "continent": "Asia",
      "jan": -12.1,
      "feb": -9.3,
      "mar": -0.5,
      "apr": 10.4,
      "may": 17.0,
      "jun": 21.8,
      "jul": 23.9,
      "aug": 22.7,
      "sep": 17.0,
      "oct": 8.4,
      "nov": -1.5,
      "dec": -9.4,
      "yearly_avg": 7.4,
      "lat": 43.8256,
      "lng": 87.6168
    },
    {
      "id": 134,
      "city": "Tbilisi",
      "country": "Georgia",
      "continent": "Asia",
      "jan": 1.2,
      "feb": 2.7,
      "mar": 6.6,
      "apr": 12.2,
      "may": 17.4,
      "jun": 21.3,
      "jul": 24.5,
      "aug": 24.1,
      "sep": 19.6,
      "oct": 13.7,
      "nov": 7.8,
      "dec": 3.2,
      "yearly_avg": 12.9,
      "lat": 41.7151,
      "lng": 44.8271
    },
    {
      "id": 137,
      "city": "New Delhi",
      "country": "India",
      "continent": "Asia",
      "jan": 13.4,
      "feb": 16.8,
      "mar": 22.4,
      "apr": 29.1,
      "may": 32.7,
      "jun": 32.9,
      "jul": 29.9,
      "aug": 28.8,
      "sep": 27.9,
      "oct": 25.5,
      "nov": 20.5,
      "dec": 15.3,
      "yearly_avg": 24.6,
      "lat": 28.6139,
      "lng": 77.209
    },
    {
      "id": 138,
      "city": "Kolkata",
      "country": "India",
      "continent": "Asia",
      "jan": 20.1,
      "feb": 22.8,
      "mar": 27.6,
      "apr": 30.5,
      "may": 31.3,
      "jun": 30.4,
      "jul": 29.1,
      "aug": 28.8,
      "sep": 28.8,
      "oct": 27.5,
      "nov": 23.7,
      "dec": 20.3,
      "yearly_avg": 26.7,
      "lat": 22.5726,
      "lng": 88.3639
    },
    {
      "id": 139,
      "city": "Mumbai",
      "country": "India",
      "continent": "Asia",
      "jan": 23.7,
      "feb": 24.5,
      "mar": 26.8,
      "apr": 28.4,
      "may": 29.9,
      "jun": 29.2,
      "jul": 27.6,
      "aug": 27.2,
      "sep": 27.3,
      "oct": 28.3,
      "nov": 27.2,
      "dec": 25.2,
      "yearly_avg": 27.1,
      "lat": 19.076,
      "lng": 72.8777
    },
    {
      "id": 140,
      "city": "Jakarta",
      "country": "Indonesia",
      "continent": "Asia",
      "jan": 26.1,
      "feb": 26.1,
      "mar": 26.4,
      "apr": 27.0,
      "may": 27.2,
      "jun": 26.7,
      "jul": 26.4,
      "aug": 26.7,
      "sep": 27.0,
      "oct": 27.2,
      "nov": 27.0,
      "dec": 26.4,
      "yearly_avg": 26.7,
      "lat": -6.2088,
      "lng": 106.8456
    },
    {
      "id": 141,
      "city": "Denpasar",
      "country": "Indonesia",
      "continent": "Asia",
      "jan": 24.1,
      "feb": 24.2,
      "mar": 24.0,
      "apr": 24.8,
      "may": 24.1,
      "jun": 23.5,
      "jul": 22.5,
      "aug": 22.9,
      "sep": 23.0,
      "oct": 23.7,
      "nov": 23.5,
      "dec": 23.5,
      "yearly_avg": 23.7,
      "lat": -8.6705,
      "lng": 115.2126
    },
    {
      "id": 142,
      "city": "Jayapura",
      "country": "Indonesia",
      "continent": "Asia",
      "jan": 27.1,
      "feb": 26.9,
      "mar": 27.1,
      "apr": 27.3,
      "may": 27.2,
      "jun": 26.9,
      "jul": 26.4,
      "aug": 26.6,
      "sep": 26.9,
      "oct": 27.2,
      "nov": 27.3,
      "dec": 27.0,
      "yearly_avg": 27.0,
      "lat": -2.5916,
      "lng": 140.669
    },
    {
      "id": 143,
      "city": "Makassar",
      "country": "Indonesia",
      "continent": "Asia",
      "jan": 26.0,
      "feb": 26.3,
      "mar": 27.4,
      "apr": 27.6,
      "may": 26.9,
      "jun": 26.0,
      "jul": 25.6,
      "aug": 26.0,
      "sep": 26.7,
      "oct": 27.5,
      "nov": 27.7,
      "dec": 26.1,
      "yearly_avg": 26.7,
      "lat": -5.1477,
      "lng": 119.4327
    },
    {
      "id": 144,
      "city": "Medan",
      "country": "Indonesia",
      "continent": "Asia",
      "jan": 25.6,
      "feb": 26.1,
      "mar": 26.7,
      "apr": 27.2,
      "may": 27.3,
      "jun": 27.1,
      "jul": 27.0,
      "aug": 26.9,
      "sep": 26.6,
      "oct": 26.1,
      "nov": 26.0,
      "dec": 25.8,
      "yearly_avg": 26.5,
      "lat": 3.5952,
      "lng": 98.6722
    },
    {
      "id": 147,
      "city": "Surabaya",
      "country": "Indonesia",
      "continent": "Asia",
      "jan": 26.8,
      "feb": 26.8,
      "mar": 27.0,
      "apr": 27.3,
      "may": 27.3,
      "jun": 26.7,
      "jul": 26.2,
      "aug": 26.5,
      "sep": 27.2,
      "oct": 28.2,
      "nov": 28.3,
      "dec": 27.3,
      "yearly_avg": 27.1,
      "lat": -7.2575,
      "lng": 112.7521
    },
    {
      "id": 148,
      "city": "Baghdad",
      "country": "Iraq",
      "continent": "Asia",
      "jan": 9.7,
      "feb": 12.0,
      "mar": 16.6,
      "apr": 22.6,
      "may": 28.3,
      "jun": 32.3,
      "jul": 34.8,
      "aug": 34.0,
      "sep": 30.5,
      "oct": 24.7,
      "nov": 16.5,
      "dec": 11.2,
      "yearly_avg": 22.77,
      "lat": 33.3152,
      "lng": 44.3661
    },
    {
      "id": 150,
      "city": "Tehran",
      "country": "Iran",
      "continent": "Asia",
      "jan": 4.7,
      "feb": 7.0,
      "mar": 11.8,
      "apr": 17.6,
      "may": 23.2,
      "jun": 28.8,
      "jul": 31.4,
      "aug": 30.5,
      "sep": 26.3,
      "oct": 19.6,
      "nov": 11.6,
      "dec": 6.5,
      "yearly_avg": 18.3,
      "lat": 35.6892,
      "lng": 51.389
    },
    {
      "id": 152,
      "city": "Tabriz",
      "country": "Iran",
      "continent": "Asia",
      "jan": -1.7,
      "feb": 0.5,
      "mar": 5.6,
      "apr": 11.5,
      "may": 16.7,
      "jun": 22.1,
      "jul": 26.0,
      "aug": 25.9,
      "sep": 21.4,
      "oct": 14.5,
      "nov": 7.1,
      "dec": 1.2,
      "yearly_avg": 12.6,
      "lat": 38.08,
      "lng": 46.2919
    },
    {
      "id": 153,
      "city": "Jerusalem",
      "country": "Israel",
      "continent": "Asia",
      "jan": 9.8,
      "feb": 10.7,
      "mar": 13.4,
      "apr": 17.3,
      "may": 21.2,
      "jun": 23.5,
      "jul": 25.0,
      "aug": 25.3,
      "sep": 24.0,
      "oct": 21.6,
      "nov": 16.4,
      "dec": 11.9,
      "yearly_avg": 18.3,
      "lat": 31.7683,
      "lng": 35.2137
    },
    {
      "id": 154,
      "city": "Tel Aviv",
      "country": "Israel",
      "continent": "Asia",
      "jan": 12.9,
      "feb": 13.4,
      "mar": 16.4,
      "apr": 19.2,
      "may": 21.8,
      "jun": 24.8,
      "jul": 27.0,
      "aug": 27.8,
      "sep": 26.5,
      "oct": 22.7,
      "nov": 17.6,
      "dec": 13.9,
      "yearly_avg": 20.3,
      "lat": 32.0853,
      "lng": 34.7818
    },
    {
      "id": 155,
      "city": "Sapporo",
      "country": "Japan",
      "continent": "Asia",
      "jan": -3.6,
      "feb": -3.1,
      "mar": 0.6,
      "apr": 7.1,
      "may": 12.4,
      "jun": 16.7,
      "jul": 20.5,
      "aug": 22.3,
      "sep": 18.1,
      "oct": 11.8,
      "nov": 4.9,
      "dec": -0.9,
      "yearly_avg": 8.9,
      "lat": 43.0618,
      "lng": 141.3545
    },
    {
      "id": 157,
      "city": "Tokyo",
      "country": "Japan",
      "continent": "Asia",
      "jan": 5.2,
      "feb": 5.7,
      "mar": 8.7,
      "apr": 13.9,
      "may": 18.2,
      "jun": 21.4,
      "jul": 25.0,
      "aug": 26.4,
      "sep": 22.8,
      "oct": 17.5,
      "nov": 12.1,
      "dec": 7.6,
      "yearly_avg": 15.4,
      "lat": 35.6762,
      "lng": 139.6503
    },
    {
      "id": 160,
      "city": "Fukuoka",
      "country": "Japan",
      "continent": "Asia",
      "jan": 6.6,
      "feb": 7.4,
      "mar": 10.4,
      "apr": 15.1,
      "may": 19.4,
      "jun": 23.0,
      "jul": 27.2,
      "aug": 28.1,
      "sep": 24.4,
      "oct": 19.2,
      "nov": 13.8,
      "dec": 8.9,
      "yearly_avg": 17.0,
      "lat": 33.5904,
      "lng": 130.4017
    },
    {
      "id": 161,
      "city": "Naha",
      "country": "Japan",
      "continent": "Asia",
      "jan": 17.0,
      "feb": 17.1,
      "mar": 18.9,
      "apr": 21.4,
      "may": 24.0,
      "jun": 26.8,
      "jul": 28.9,
      "aug": 28.7,
      "sep": 27.6,
      "oct": 25.2,
      "nov": 22.1,
      "dec": 18.7,
      "yearly_avg": 23.1,
      "lat": 26.2124,
      "lng": 127.6809
    },
    {
      "id": 162,
      "city": "Almaty",
      "country": "Kazakhstan",
      "continent": "Asia",
      "jan": -4.7,
      "feb": -3.0,
      "mar": 3.4,
      "apr": 11.5,
      "may": 16.6,
      "jun": 21.6,
      "jul": 23.8,
      "aug": 23.0,
      "sep": 17.6,
      "oct": 9.9,
      "nov": 2.7,
      "dec": -2.8,
      "yearly_avg": 10.0,
      "lat": 43.222,
      "lng": 76.8512
    },
    {
      "id": 163,
      "city": "Astana",
      "country": "Kazakhstan",
      "continent": "Asia",
      "jan": -14.2,
      "feb": -14.1,
      "mar": -7.1,
      "apr": 5.2,
      "may": 13.9,
      "jun": 19.5,
      "jul": 20.8,
      "aug": 18.8,
      "sep": 12.3,
      "oct": 4.6,
      "nov": -5.4,
      "dec": -12.1,
      "yearly_avg": 3.5,
      "lat": 51.1605,
      "lng": 71.4704
    },
    {
      "id": 164,
      "city": "Kuwait City",
      "country": "Kuwait",
      "continent": "Asia",
      "jan": 12.5,
      "feb": 14.8,
      "mar": 19.3,
      "apr": 24.9,
      "may": 31.5,
      "jun": 36.0,
      "jul": 37.7,
      "aug": 36.8,
      "sep": 33.3,
      "oct": 27.3,
      "nov": 19.9,
      "dec": 14.1,
      "yearly_avg": 25.7,
      "lat": 29.3759,
      "lng": 47.9774
    },
    {
      "id": 165,
      "city": "Bishkek",
      "country": "Kyrgyzstan",
      "continent": "Asia",
      "jan": -2.6,
      "feb": -0.8,
      "mar": 5.3,
      "apr": 12.3,
      "may": 17.4,
      "jun": 22.4,
      "jul": 24.9,
      "aug": 23.8,
      "sep": 18.5,
      "oct": 11.0,
      "nov": 4.7,
      "dec": -0.9,
      "yearly_avg": 11.3,
      "lat": 42.8746,
      "lng": 74.5698
    },
    {
      "id": 166,
      "city": "Vientiane",
      "country": "Laos",
      "continent": "Asia",
      "jan": 21.7,
      "feb": 24.0,
      "mar": 26.7,
      "apr": 28.5,
      "may": 27.7,
      "jun": 27.7,
      "jul": 27.5,
      "aug": 27.2,
      "sep": 27.0,
      "oct": 26.4,
      "nov": 24.3,
      "dec": 21.7,
      "yearly_avg": 25.9,
      "lat": 17.9757,
      "lng": 102.6331
    },
    {
      "id": 167,
      "city": "Beirut",
      "country": "Lebanon",
      "continent": "Asia",
      "jan": 14.0,
      "feb": 14.0,
      "mar": 16.0,
      "apr": 18.7,
      "may": 21.7,
      "jun": 24.9,
      "jul": 27.1,
      "aug": 27.8,
      "sep": 26.8,
      "oct": 24.1,
      "nov": 19.5,
      "dec": 15.8,
      "yearly_avg": 20.9,
      "lat": 33.8938,
      "lng": 35.5018
    },
    {
      "id": 168,
      "city": "Kuala Lumpur",
      "country": "Malaysia",
      "continent": "Asia",
      "jan": 26.9,
      "feb": 27.3,
      "mar": 27.6,
      "apr": 27.7,
      "may": 28.0,
      "jun": 27.9,
      "jul": 27.4,
      "aug": 27.5,
      "sep": 27.2,
      "oct": 27.1,
      "nov": 26.8,
      "dec": 26.7,
      "yearly_avg": 27.3,
      "lat": 3.139,
      "lng": 101.6869
    },
    {
      "id": 169,
      "city": "Mal\u00e9",
      "country": "Maldives",
      "continent": "Asia",
      "jan": 27.7,
      "feb": 28.0,
      "mar": 28.5,
      "apr": 28.9,
      "may": 28.6,
      "jun": 28.2,
      "jul": 28.0,
      "aug": 27.8,
      "sep": 27.6,
      "oct": 27.6,
      "nov": 27.7,
      "dec": 27.5,
      "yearly_avg": 28.0,
      "lat": 4.1755,
      "lng": 73.5093
    },
    {
      "id": 170,
      "city": "Ulaanbaatar",
      "country": "Mongolia",
      "continent": "Asia",
      "jan": -21.6,
      "feb": -16.6,
      "mar": -7.4,
      "apr": 2.0,
      "may": 10.1,
      "jun": 15.7,
      "jul": 18.2,
      "aug": 16.0,
      "sep": 9.6,
      "oct": 0.5,
      "nov": -11.9,
      "dec": -19.0,
      "yearly_avg": -0.4,
      "lat": 47.8864,
      "lng": 106.9057
    },
    {
      "id": 171,
      "city": "Mandalay",
      "country": "Myanmar",
      "continent": "Asia",
      "jan": 21.9,
      "feb": 24.4,
      "mar": 28.8,
      "apr": 31.9,
      "may": 31.3,
      "jun": 30.8,
      "jul": 30.8,
      "aug": 30.2,
      "sep": 29.7,
      "oct": 28.8,
      "nov": 25.7,
      "dec": 22.2,
      "yearly_avg": 28.0,
      "lat": 21.9588,
      "lng": 96.0891
    },
    {
      "id": 172,
      "city": "Yangon",
      "country": "Myanmar",
      "continent": "Asia",
      "jan": 25.0,
      "feb": 26.3,
      "mar": 28.6,
      "apr": 30.6,
      "may": 29.6,
      "jun": 27.4,
      "jul": 26.9,
      "aug": 26.9,
      "sep": 27.4,
      "oct": 27.9,
      "nov": 27.4,
      "dec": 25.4,
      "yearly_avg": 27.5,
      "lat": 16.8661,
      "lng": 96.1951
    },
    {
      "id": 173,
      "city": "Kathmandu",
      "country": "Nepal",
      "continent": "Asia",
      "jan": 10.0,
      "feb": 11.9,
      "mar": 16.1,
      "apr": 19.2,
      "may": 21.8,
      "jun": 23.8,
      "jul": 24.1,
      "aug": 24.1,
      "sep": 23.3,
      "oct": 19.1,
      "nov": 14.8,
      "dec": 11.3,
      "yearly_avg": 18.3,
      "lat": 27.7172,
      "lng": 85.324
    },
    {
      "id": 175,
      "city": "Muscat",
      "country": "Oman",
      "continent": "Asia",
      "jan": 21.0,
      "feb": 22.0,
      "mar": 25.0,
      "apr": 30.0,
      "may": 34.0,
      "jun": 35.0,
      "jul": 34.0,
      "aug": 32.0,
      "sep": 31.0,
      "oct": 30.0,
      "nov": 25.0,
      "dec": 22.0,
      "yearly_avg": 28.0,
      "lat": 23.588,
      "lng": 58.3829
    },
    {
      "id": 176,
      "city": "Karachi",
      "country": "Pakistan",
      "continent": "Asia",
      "jan": 18.1,
      "feb": 20.2,
      "mar": 24.5,
      "apr": 28.3,
      "may": 30.5,
      "jun": 31.4,
      "jul": 30.3,
      "aug": 28.9,
      "sep": 28.9,
      "oct": 27.9,
      "nov": 23.9,
      "dec": 19.5,
      "yearly_avg": 26.0,
      "lat": 24.8607,
      "lng": 67.0011
    },
    {
      "id": 177,
      "city": "Lahore",
      "country": "Pakistan",
      "continent": "Asia",
      "jan": 12.8,
      "feb": 15.4,
      "mar": 20.5,
      "apr": 26.8,
      "may": 31.2,
      "jun": 33.9,
      "jul": 31.5,
      "aug": 30.7,
      "sep": 29.7,
      "oct": 25.6,
      "nov": 19.5,
      "dec": 14.2,
      "yearly_avg": 24.3,
      "lat": 31.5497,
      "lng": 74.3436
    },
    {
      "id": 178,
      "city": "Manila",
      "country": "Philippines",
      "continent": "Asia",
      "jan": 26.7,
      "feb": 27.4,
      "mar": 28.7,
      "apr": 30.1,
      "may": 30.0,
      "jun": 29.3,
      "jul": 28.5,
      "aug": 28.3,
      "sep": 28.4,
      "oct": 28.4,
      "nov": 28.0,
      "dec": 27.0,
      "yearly_avg": 28.4,
      "lat": 14.5995,
      "lng": 120.9842
    },
    {
      "id": 180,
      "city": "Anadyr",
      "country": "Russia",
      "continent": "Asia",
      "jan": -22.6,
      "feb": -22.0,
      "mar": -19.3,
      "apr": -12.8,
      "may": -1.6,
      "jun": 6.3,
      "jul": 11.6,
      "aug": 10.1,
      "sep": 4.7,
      "oct": -4.6,
      "nov": -13.3,
      "dec": -19.3,
      "yearly_avg": -6.9,
      "lat": 64.734,
      "lng": 177.5097
    },
    {
      "id": 181,
      "city": "Dikson",
      "country": "Russia",
      "continent": "Asia",
      "jan": -24.8,
      "feb": -25.4,
      "mar": -22.1,
      "apr": -17.2,
      "may": -7.8,
      "jun": 0.4,
      "jul": 4.9,
      "aug": 5.5,
      "sep": 1.6,
      "oct": -7.5,
      "nov": -17.5,
      "dec": -22.9,
      "yearly_avg": -11.1,
      "lat": 73.5069,
      "lng": 80.5297
    },
    {
      "id": 182,
      "city": "Irkutsk",
      "country": "Russia",
      "continent": "Asia",
      "jan": -17.8,
      "feb": -14.4,
      "mar": -6.4,
      "apr": 2.5,
      "may": 10.2,
      "jun": 15.4,
      "jul": 18.3,
      "aug": 15.9,
      "sep": 9.2,
      "oct": 1.8,
      "nov": -7.6,
      "dec": -15.3,
      "yearly_avg": 1.0,
      "lat": 52.2978,
      "lng": 104.2964
    },
    {
      "id": 183,
      "city": "Novosibirsk",
      "country": "Russia",
      "continent": "Asia",
      "jan": -16.5,
      "feb": -14.8,
      "mar": -7.6,
      "apr": 2.3,
      "may": 11.8,
      "jun": 17.1,
      "jul": 19.4,
      "aug": 16.6,
      "sep": 10.2,
      "oct": 3.1,
      "nov": -6.9,
      "dec": -14.0,
      "yearly_avg": 1.7,
      "lat": 55.0084,
      "lng": 82.9357
    },
    {
      "id": 184,
      "city": "Petropavlovsk-Kamchatsky",
      "country": "Russia",
      "continent": "Asia",
      "jan": -7.6,
      "feb": -7.1,
      "mar": -4.6,
      "apr": -0.6,
      "may": 3.4,
      "jun": 8.2,
      "jul": 11.5,
      "aug": 12.5,
      "sep": 9.7,
      "oct": 4.9,
      "nov": -1.3,
      "dec": -5.8,
      "yearly_avg": 1.9,
      "lat": 53.0452,
      "lng": 158.6483
    },
    {
      "id": 185,
      "city": "Vladivostok",
      "country": "Russia",
      "continent": "Asia",
      "jan": -12.3,
      "feb": -8.4,
      "mar": -1.9,
      "apr": 5.1,
      "may": 9.8,
      "jun": 13.6,
      "jul": 17.6,
      "aug": 19.8,
      "sep": 16.0,
      "oct": 8.9,
      "nov": -0.9,
      "dec": -9.1,
      "yearly_avg": 4.9,
      "lat": 43.1332,
      "lng": 131.9113
    },
    {
      "id": 186,
      "city": "Yakutsk",
      "country": "Russia",
      "continent": "Asia",
      "jan": -38.6,
      "feb": -33.8,
      "mar": -20.1,
      "apr": -4.8,
      "may": 7.5,
      "jun": 16.4,
      "jul": 19.5,
      "aug": 15.2,
      "sep": 6.1,
      "oct": -7.8,
      "nov": -27.0,
      "dec": -37.6,
      "yearly_avg": -8.8,
      "lat": 62.0355,
      "lng": 129.6755
    },
    {
      "id": 188,
      "city": "Riyadh",
      "country": "Saudi Arabia",
      "continent": "Asia",
      "jan": 14.0,
      "feb": 16.7,
      "mar": 21.0,
      "apr": 26.4,
      "may": 32.2,
      "jun": 35.2,
      "jul": 36.3,
      "aug": 36.0,
      "sep": 32.8,
      "oct": 27.5,
      "nov": 20.4,
      "dec": 15.4,
      "yearly_avg": 26.2,
      "lat": 24.7136,
      "lng": 46.6753
    },
    {
      "id": 189,
      "city": "Singapore",
      "country": "Singapore",
      "continent": "Asia",
      "jan": 26.8,
      "feb": 27.3,
      "mar": 27.8,
      "apr": 28.2,
      "may": 28.6,
      "jun": 28.5,
      "jul": 28.2,
      "aug": 28.1,
      "sep": 28.0,
      "oct": 27.9,
      "nov": 27.2,
      "dec": 26.8,
      "yearly_avg": 27.8,
      "lat": 1.3521,
      "lng": 103.8198
    },
    {
      "id": 190,
      "city": "Seoul",
      "country": "South Korea",
      "continent": "Asia",
      "jan": -2.4,
      "feb": 0.4,
      "mar": 5.7,
      "apr": 12.5,
      "may": 17.8,
      "jun": 22.2,
      "jul": 24.9,
      "aug": 25.7,
      "sep": 21.2,
      "oct": 14.8,
      "nov": 7.2,
      "dec": 0.4,
      "yearly_avg": 12.5,
      "lat": 37.5665,
      "lng": 126.978
    },
    {
      "id": 191,
      "city": "Busan",
      "country": "South Korea",
      "continent": "Asia",
      "jan": 3.6,
      "feb": 5.4,
      "mar": 9.1,
      "apr": 13.8,
      "may": 17.9,
      "jun": 21.0,
      "jul": 24.4,
      "aug": 26.1,
      "sep": 22.6,
      "oct": 17.9,
      "nov": 11.9,
      "dec": 5.8,
      "yearly_avg": 15.0,
      "lat": 35.1796,
      "lng": 129.0756
    },
    {
      "id": 192,
      "city": "Colombo",
      "country": "Sri Lanka",
      "continent": "Asia",
      "jan": 26.6,
      "feb": 26.9,
      "mar": 27.7,
      "apr": 28.2,
      "may": 28.3,
      "jun": 27.9,
      "jul": 27.6,
      "aug": 27.6,
      "sep": 27.5,
      "oct": 27.0,
      "nov": 26.7,
      "dec": 26.6,
      "yearly_avg": 27.4,
      "lat": 6.9271,
      "lng": 79.8612
    },
    {
      "id": 193,
      "city": "Damascus",
      "country": "Syria",
      "continent": "Asia",
      "jan": 6.1,
      "feb": 7.7,
      "mar": 11.4,
      "apr": 16.2,
      "may": 20.8,
      "jun": 25.0,
      "jul": 27.3,
      "aug": 27.0,
      "sep": 24.0,
      "oct": 19.0,
      "nov": 12.1,
      "dec": 7.5,
      "yearly_avg": 17.0,
      "lat": 33.5138,
      "lng": 36.2765
    },
    {
      "id": 194,
      "city": "Dushanbe",
      "country": "Tajikistan",
      "continent": "Asia",
      "jan": 2.1,
      "feb": 3.8,
      "mar": 9.2,
      "apr": 15.4,
      "may": 20.0,
      "jun": 25.3,
      "jul": 27.1,
      "aug": 24.9,
      "sep": 20.1,
      "oct": 14.3,
      "nov": 8.9,
      "dec": 4.8,
      "yearly_avg": 14.7,
      "lat": 38.5598,
      "lng": 68.774
    },
    {
      "id": 195,
      "city": "Taipei",
      "country": "Taiwan",
      "continent": "Asia",
      "jan": 16.4,
      "feb": 16.9,
      "mar": 18.8,
      "apr": 22.3,
      "may": 25.6,
      "jun": 28.2,
      "jul": 29.9,
      "aug": 29.5,
      "sep": 27.7,
      "oct": 24.6,
      "nov": 21.9,
      "dec": 18.2,
      "yearly_avg": 23.3,
      "lat": 25.033,
      "lng": 121.5654
    },
    {
      "id": 196,
      "city": "Bangkok",
      "country": "Thailand",
      "continent": "Asia",
      "jan": 27.0,
      "feb": 28.3,
      "mar": 29.5,
      "apr": 30.5,
      "may": 29.9,
      "jun": 29.5,
      "jul": 29.0,
      "aug": 28.8,
      "sep": 28.3,
      "oct": 28.1,
      "nov": 27.8,
      "dec": 26.5,
      "yearly_avg": 28.6,
      "lat": 13.7563,
      "lng": 100.5018
    },
    {
      "id": 197,
      "city": "Chiang Mai",
      "country": "Thailand",
      "continent": "Asia",
      "jan": 21.5,
      "feb": 23.9,
      "mar": 27.1,
      "apr": 29.3,
      "may": 28.2,
      "jun": 27.6,
      "jul": 27.2,
      "aug": 26.8,
      "sep": 26.7,
      "oct": 26.1,
      "nov": 24.0,
      "dec": 21.4,
      "yearly_avg": 25.8,
      "lat": 18.7883,
      "lng": 98.9853
    },
    {
      "id": 200,
      "city": "Ankara",
      "country": "Turkey",
      "continent": "Asia",
      "jan": 0.4,
      "feb": 1.9,
      "mar": 6.0,
      "apr": 11.3,
      "may": 16.1,
      "jun": 20.1,
      "jul": 23.6,
      "aug": 23.4,
      "sep": 18.8,
      "oct": 13.0,
      "nov": 7.0,
      "dec": 2.6,
      "yearly_avg": 12.0,
      "lat": 39.9334,
      "lng": 32.8597
    },
    {
      "id": 203,
      "city": "Ashgabat",
      "country": "Turkmenistan",
      "continent": "Asia",
      "jan": 3.5,
      "feb": 5.5,
      "mar": 10.4,
      "apr": 17.4,
      "may": 23.3,
      "jun": 29.0,
      "jul": 31.3,
      "aug": 29.6,
      "sep": 23.6,
      "oct": 16.5,
      "nov": 10.2,
      "dec": 5.1,
      "yearly_avg": 17.1,
      "lat": 37.9601,
      "lng": 58.3261
    },
    {
      "id": 206,
      "city": "Tashkent",
      "country": "Uzbekistan",
      "continent": "Asia",
      "jan": 1.9,
      "feb": 3.9,
      "mar": 9.4,
      "apr": 15.5,
      "may": 20.5,
      "jun": 25.8,
      "jul": 27.8,
      "aug": 26.2,
      "sep": 20.6,
      "oct": 13.9,
      "nov": 8.5,
      "dec": 3.5,
      "yearly_avg": 14.8,
      "lat": 41.2995,
      "lng": 69.2401
    },
    {
      "id": 209,
      "city": "Hanoi",
      "country": "Vietnam",
      "continent": "Asia",
      "jan": 16.4,
      "feb": 17.2,
      "mar": 20.0,
      "apr": 23.9,
      "may": 27.4,
      "jun": 28.9,
      "jul": 29.2,
      "aug": 28.6,
      "sep": 27.5,
      "oct": 24.9,
      "nov": 21.5,
      "dec": 18.2,
      "yearly_avg": 23.6,
      "lat": 21.0285,
      "lng": 105.8542
    },
    {
      "id": 210,
      "city": "Ho Chi Minh City",
      "country": "Vietnam",
      "continent": "Asia",
      "jan": 26.0,
      "feb": 26.8,
      "mar": 28.0,
      "apr": 29.2,
      "may": 28.8,
      "jun": 27.8,
      "jul": 27.5,
      "aug": 27.4,
      "sep": 27.2,
      "oct": 27.0,
      "nov": 26.7,
      "dec": 26.0,
      "yearly_avg": 27.4,
      "lat": 10.8231,
      "lng": 106.6297
    },
    {
      "id": 211,
      "city": "Aden",
      "country": "Yemen",
      "continent": "Asia",
      "jan": 25.7,
      "feb": 26.0,
      "mar": 27.2,
      "apr": 28.9,
      "may": 31.0,
      "jun": 32.7,
      "jul": 32.7,
      "aug": 31.5,
      "sep": 31.6,
      "oct": 28.9,
      "nov": 27.1,
      "dec": 26.0,
      "yearly_avg": 29.1,
      "lat": 12.7855,
      "lng": 45.0187
    },
    {
      "id": 212,
      "city": "Sanaa",
      "country": "Yemen",
      "continent": "Asia",
      "jan": 16.0,
      "feb": 18.0,
      "mar": 20.0,
      "apr": 20.0,
      "may": 22.0,
      "jun": 23.0,
      "jul": 24.0,
      "aug": 23.0,
      "sep": 22.0,
      "oct": 18.0,
      "nov": 16.0,
      "dec": 15.0,
      "yearly_avg": 20.0,
      "lat": 15.3694,
      "lng": 44.191
    },
    {
      "id": 213,
      "city": "Tirana",
      "country": "Albania",
      "continent": "Europe",
      "jan": 6.7,
      "feb": 7.8,
      "mar": 10.0,
      "apr": 13.4,
      "may": 18.0,
      "jun": 21.6,
      "jul": 24.0,
      "aug": 23.8,
      "sep": 20.7,
      "oct": 16.0,
      "nov": 11.7,
      "dec": 8.1,
      "yearly_avg": 15.2,
      "lat": 41.3275,
      "lng": 19.8187
    },
    {
      "id": 214,
      "city": "Andorra la Vella",
      "country": "Andorra",
      "continent": "Europe",
      "jan": 2.2,
      "feb": 3.5,
      "mar": 5.8,
      "apr": 7.5,
      "may": 11.5,
      "jun": 15.4,
      "jul": 18.8,
      "aug": 18.5,
      "sep": 14.9,
      "oct": 10.3,
      "nov": 5.7,
      "dec": 3.0,
      "yearly_avg": 9.8,
      "lat": 42.5063,
      "lng": 1.5218
    },
    {
      "id": 215,
      "city": "Vienna",
      "country": "Austria",
      "continent": "Europe",
      "jan": 0.3,
      "feb": 1.5,
      "mar": 5.7,
      "apr": 10.7,
      "may": 15.7,
      "jun": 18.7,
      "jul": 20.8,
      "aug": 20.2,
      "sep": 15.4,
      "oct": 10.2,
      "nov": 5.1,
      "dec": 1.1,
      "yearly_avg": 10.4,
      "lat": 48.2082,
      "lng": 16.3738
    },
    {
      "id": 216,
      "city": "Minsk",
      "country": "Belarus",
      "continent": "Europe",
      "jan": -4.5,
      "feb": -4.4,
      "mar": 0.0,
      "apr": 7.2,
      "may": 13.3,
      "jun": 16.4,
      "jul": 18.5,
      "aug": 17.5,
      "sep": 12.1,
      "oct": 6.6,
      "nov": 0.6,
      "dec": -3.4,
      "yearly_avg": 6.7,
      "lat": 53.9006,
      "lng": 27.559
    },
    {
      "id": 217,
      "city": "Brussels",
      "country": "Belgium",
      "continent": "Europe",
      "jan": 3.3,
      "feb": 3.7,
      "mar": 6.8,
      "apr": 9.8,
      "may": 13.6,
      "jun": 16.2,
      "jul": 18.4,
      "aug": 18.0,
      "sep": 14.9,
      "oct": 11.1,
      "nov": 6.8,
      "dec": 3.9,
      "yearly_avg": 10.5,
      "lat": 50.8503,
      "lng": 4.3517
    },
    {
      "id": 218,
      "city": "Sarajevo",
      "country": "Bosnia and Herzegovina",
      "continent": "Europe",
      "jan": -0.5,
      "feb": 1.4,
      "mar": 5.7,
      "apr": 10.0,
      "may": 14.8,
      "jun": 17.7,
      "jul": 19.7,
      "aug": 19.7,
      "sep": 15.3,
      "oct": 11.0,
      "nov": 5.4,
      "dec": 0.9,
      "yearly_avg": 10.1,
      "lat": 43.8563,
      "lng": 18.4131
    },
    {
      "id": 219,
      "city": "Sofia",
      "country": "Bulgaria",
      "continent": "Europe",
      "jan": -0.5,
      "feb": 1.1,
      "mar": 5.4,
      "apr": 10.6,
      "may": 15.4,
      "jun": 18.9,
      "jul": 21.2,
      "aug": 21.0,
      "sep": 16.5,
      "oct": 11.3,
      "nov": 5.1,
      "dec": 0.7,
      "yearly_avg": 10.6,
      "lat": 42.6977,
      "lng": 23.3219
    },
    {
      "id": 220,
      "city": "Zagreb",
      "country": "Croatia",
      "continent": "Europe",
      "jan": 0.3,
      "feb": 2.3,
      "mar": 6.4,
      "apr": 10.7,
      "may": 15.8,
      "jun": 18.8,
      "jul": 20.6,
      "aug": 20.1,
      "sep": 15.9,
      "oct": 10.5,
      "nov": 5.0,
      "dec": 1.4,
      "yearly_avg": 10.7,
      "lat": 45.815,
      "lng": 15.9819
    },
    {
      "id": 222,
      "city": "Nicosia",
      "country": "Cyprus",
      "continent": "Europe",
      "jan": 10.6,
      "feb": 10.6,
      "mar": 13.1,
      "apr": 17.1,
      "may": 22.3,
      "jun": 26.9,
      "jul": 29.7,
      "aug": 29.4,
      "sep": 26.2,
      "oct": 22.3,
      "nov": 16.3,
      "dec": 12.0,
      "yearly_avg": 19.7,
      "lat": 35.1856,
      "lng": 33.3823
    },
    {
      "id": 223,
      "city": "Prague",
      "country": "Czech Republic",
      "continent": "Europe",
      "jan": -1.4,
      "feb": -0.4,
      "mar": 3.6,
      "apr": 8.4,
      "may": 13.4,
      "jun": 16.1,
      "jul": 18.2,
      "aug": 17.8,
      "sep": 13.5,
      "oct": 8.5,
      "nov": 3.1,
      "dec": -0.3,
      "yearly_avg": 8.4,
      "lat": 50.0755,
      "lng": 14.4378
    },
    {
      "id": 224,
      "city": "Copenhagen",
      "country": "Denmark",
      "continent": "Europe",
      "jan": 1.4,
      "feb": 1.4,
      "mar": 3.5,
      "apr": 7.7,
      "may": 12.5,
      "jun": 15.6,
      "jul": 18.1,
      "aug": 17.7,
      "sep": 13.9,
      "oct": 9.8,
      "nov": 5.5,
      "dec": 2.5,
      "yearly_avg": 9.1,
      "lat": 55.6761,
      "lng": 12.5683
    },
    {
      "id": 225,
      "city": "Tallinn",
      "country": "Estonia",
      "continent": "Europe",
      "jan": -2.9,
      "feb": -3.6,
      "mar": -0.6,
      "apr": 4.8,
      "may": 10.2,
      "jun": 14.5,
      "jul": 17.6,
      "aug": 16.5,
      "sep": 12.0,
      "oct": 6.5,
      "nov": 2.0,
      "dec": -0.9,
      "yearly_avg": 6.4,
      "lat": 59.437,
      "lng": 24.7536
    },
    {
      "id": 226,
      "city": "Helsinki",
      "country": "Finland",
      "continent": "Europe",
      "jan": -3.9,
      "feb": -4.7,
      "mar": -1.3,
      "apr": 3.9,
      "may": 10.2,
      "jun": 14.6,
      "jul": 17.8,
      "aug": 16.3,
      "sep": 11.5,
      "oct": 6.6,
      "nov": 1.6,
      "dec": -2.0,
      "yearly_avg": 5.9,
      "lat": 60.1699,
      "lng": 24.9384
    },
    {
      "id": 228,
      "city": "Oulu",
      "country": "Finland",
      "continent": "Europe",
      "jan": -9.6,
      "feb": -9.3,
      "mar": -4.8,
      "apr": 1.4,
      "may": 7.8,
      "jun": 13.5,
      "jul": 16.5,
      "aug": 14.1,
      "sep": 8.9,
      "oct": 3.3,
      "nov": -2.8,
      "dec": -7.1,
      "yearly_avg": 2.7,
      "lat": 65.0121,
      "lng": 25.4651
    },
    {
      "id": 230,
      "city": "Lyon",
      "country": "France",
      "continent": "Europe",
      "jan": 3.4,
      "feb": 4.8,
      "mar": 8.4,
      "apr": 11.4,
      "may": 15.8,
      "jun": 19.4,
      "jul": 22.1,
      "aug": 21.6,
      "sep": 17.6,
      "oct": 13.4,
      "nov": 7.5,
      "dec": 4.3,
      "yearly_avg": 12.5,
      "lat": 45.764,
      "lng": 4.8357
    },
    {
      "id": 231,
      "city": "Marseille",
      "country": "France",
      "continent": "Europe",
      "jan": 8.4,
      "feb": 8.9,
      "mar": 11.6,
      "apr": 13.8,
      "may": 17.9,
      "jun": 21.3,
      "jul": 24.5,
      "aug": 24.1,
      "sep": 20.7,
      "oct": 16.9,
      "nov": 11.8,
      "dec": 9.3,
      "yearly_avg": 15.8,
      "lat": 43.2965,
      "lng": 5.3698
    },
    {
      "id": 232,
      "city": "Paris",
      "country": "France",
      "continent": "Europe",
      "jan": 4.9,
      "feb": 5.6,
      "mar": 8.8,
      "apr": 11.4,
      "may": 15.1,
      "jun": 18.2,
      "jul": 20.4,
      "aug": 20.2,
      "sep": 16.9,
      "oct": 12.9,
      "nov": 8.1,
      "dec": 5.4,
      "yearly_avg": 12.3,
      "lat": 48.8566,
      "lng": 2.3522
    },
    {
      "id": 233,
      "city": "Berlin",
      "country": "Germany",
      "continent": "Europe",
      "jan": 0.6,
      "feb": 2.3,
      "mar": 5.1,
      "apr": 10.2,
      "may": 14.8,
      "jun": 17.9,
      "jul": 20.3,
      "aug": 19.7,
      "sep": 15.3,
      "oct": 10.5,
      "nov": 6.0,
      "dec": 1.3,
      "yearly_avg": 10.3,
      "lat": 52.52,
      "lng": 13.405
    },
    {
      "id": 234,
      "city": "Frankfurt",
      "country": "Germany",
      "continent": "Europe",
      "jan": 1.6,
      "feb": 2.4,
      "mar": 6.4,
      "apr": 10.3,
      "may": 14.7,
      "jun": 17.8,
      "jul": 20.0,
      "aug": 19.5,
      "sep": 15.2,
      "oct": 10.4,
      "nov": 5.6,
      "dec": 2.5,
      "yearly_avg": 10.6,
      "lat": 50.1109,
      "lng": 8.6821
    },
    {
      "id": 235,
      "city": "Hamburg",
      "country": "Germany",
      "continent": "Europe",
      "jan": 2.1,
      "feb": 2.4,
      "mar": 4.9,
      "apr": 9.1,
      "may": 13.0,
      "jun": 16.0,
      "jul": 18.3,
      "aug": 18.0,
      "sep": 14.4,
      "oct": 10.0,
      "nov": 5.7,
      "dec": 2.9,
      "yearly_avg": 9.7,
      "lat": 53.5511,
      "lng": 9.9937
    },
    {
      "id": 236,
      "city": "Athens",
      "country": "Greece",
      "continent": "Europe",
      "jan": 10.2,
      "feb": 10.9,
      "mar": 13.2,
      "apr": 16.9,
      "may": 21.8,
      "jun": 26.6,
      "jul": 29.3,
      "aug": 29.3,
      "sep": 25.0,
      "oct": 20.1,
      "nov": 15.5,
      "dec": 11.5,
      "yearly_avg": 19.2,
      "lat": 37.9838,
      "lng": 23.7275
    },
    {
      "id": 238,
      "city": "Thessaloniki",
      "country": "Greece",
      "continent": "Europe",
      "jan": 7.0,
      "feb": 8.4,
      "mar": 11.2,
      "apr": 14.9,
      "may": 20.0,
      "jun": 24.7,
      "jul": 27.0,
      "aug": 27.1,
      "sep": 22.7,
      "oct": 17.7,
      "nov": 12.8,
      "dec": 8.3,
      "yearly_avg": 16.8,
      "lat": 40.6401,
      "lng": 22.9444
    },
    {
      "id": 239,
      "city": "Budapest",
      "country": "Hungary",
      "continent": "Europe",
      "jan": 0.4,
      "feb": 2.3,
      "mar": 6.1,
      "apr": 12.0,
      "may": 16.6,
      "jun": 19.7,
      "jul": 21.5,
      "aug": 21.2,
      "sep": 16.9,
      "oct": 11.8,
      "nov": 5.4,
      "dec": 1.8,
      "yearly_avg": 11.3,
      "lat": 47.4979,
      "lng": 19.0402
    },
    {
      "id": 241,
      "city": "Dublin",
      "country": "Ireland",
      "continent": "Europe",
      "jan": 5.3,
      "feb": 5.3,
      "mar": 6.8,
      "apr": 8.3,
      "may": 10.9,
      "jun": 13.6,
      "jul": 15.6,
      "aug": 15.3,
      "sep": 13.4,
      "oct": 10.5,
      "nov": 7.4,
      "dec": 5.6,
      "yearly_avg": 9.8,
      "lat": 53.3498,
      "lng": -6.2603
    },
    {
      "id": 242,
      "city": "Milan",
      "country": "Italy",
      "continent": "Europe",
      "jan": 2.5,
      "feb": 4.7,
      "mar": 9.0,
      "apr": 12.2,
      "may": 17.0,
      "jun": 20.8,
      "jul": 23.6,
      "aug": 23.0,
      "sep": 19.2,
      "oct": 13.4,
      "nov": 7.2,
      "dec": 3.3,
      "yearly_avg": 13.0,
      "lat": 45.4642,
      "lng": 9.19
    },
    {
      "id": 244,
      "city": "Rome",
      "country": "Italy",
      "continent": "Europe",
      "jan": 7.5,
      "feb": 8.2,
      "mar": 10.2,
      "apr": 12.6,
      "may": 17.2,
      "jun": 21.1,
      "jul": 24.1,
      "aug": 24.5,
      "sep": 20.8,
      "oct": 16.4,
      "nov": 11.4,
      "dec": 8.4,
      "yearly_avg": 15.2,
      "lat": 41.9028,
      "lng": 12.4964
    },
    {
      "id": 246,
      "city": "Riga",
      "country": "Latvia",
      "continent": "Europe",
      "jan": -4.7,
      "feb": -4.2,
      "mar": 0.5,
      "apr": 5.1,
      "may": 11.4,
      "jun": 15.5,
      "jul": 16.9,
      "aug": 16.2,
      "sep": 12.0,
      "oct": 7.4,
      "nov": 2.1,
      "dec": -2.3,
      "yearly_avg": 6.2,
      "lat": 56.9496,
      "lng": 24.1052
    },
    {
      "id": 247,
      "city": "Vaduz",
      "country": "Liechtenstein",
      "continent": "Europe",
      "jan": 0.8,
      "feb": 2.1,
      "mar": 6.3,
      "apr": 9.9,
      "may": 14.4,
      "jun": 17.1,
      "jul": 19.0,
      "aug": 18.4,
      "sep": 14.9,
      "oct": 10.9,
      "nov": 5.2,
      "dec": 1.9,
      "yearly_avg": 10.1,
      "lat": 47.141,
      "lng": 9.5209
    },
    {
      "id": 248,
      "city": "Vilnius",
      "country": "Lithuania",
      "continent": "Europe",
      "jan": -3.9,
      "feb": -3.1,
      "mar": 0.9,
      "apr": 7.6,
      "may": 13.0,
      "jun": 16.4,
      "jul": 18.7,
      "aug": 17.9,
      "sep": 13.0,
      "oct": 7.0,
      "nov": 1.8,
      "dec": -2.2,
      "yearly_avg": 7.3,
      "lat": 54.6872,
      "lng": 25.2797
    },
    {
      "id": 249,
      "city": "Luxembourg",
      "country": "Luxembourg",
      "continent": "Europe",
      "jan": 0.8,
      "feb": 1.6,
      "mar": 5.2,
      "apr": 8.7,
      "may": 13.0,
      "jun": 15.9,
      "jul": 18.2,
      "aug": 17.7,
      "sep": 13.9,
      "oct": 9.5,
      "nov": 4.7,
      "dec": 1.8,
      "yearly_avg": 9.3,
      "lat": 49.6116,
      "lng": 6.1319
    },
    {
      "id": 250,
      "city": "Valletta",
      "country": "Malta",
      "continent": "Europe",
      "jan": 12.8,
      "feb": 12.8,
      "mar": 13.3,
      "apr": 15.6,
      "may": 18.9,
      "jun": 22.8,
      "jul": 26.1,
      "aug": 26.7,
      "sep": 23.9,
      "oct": 21.1,
      "nov": 17.2,
      "dec": 13.9,
      "yearly_avg": 18.8,
      "lat": 35.8989,
      "lng": 14.5146
    },
    {
      "id": 251,
      "city": "Chi\u0219in\u0103u",
      "country": "Moldova",
      "continent": "Europe",
      "jan": -1.9,
      "feb": -0.8,
      "mar": 3.7,
      "apr": 10.4,
      "may": 16.5,
      "jun": 19.9,
      "jul": 22.1,
      "aug": 21.7,
      "sep": 16.3,
      "oct": 10.5,
      "nov": 4.1,
      "dec": -0.6,
      "yearly_avg": 10.2,
      "lat": 47.0105,
      "lng": 28.8638
    },
    {
      "id": 252,
      "city": "Monaco",
      "country": "Monaco",
      "continent": "Europe",
      "jan": 10.2,
      "feb": 10.2,
      "mar": 12.0,
      "apr": 13.8,
      "may": 17.5,
      "jun": 20.9,
      "jul": 23.8,
      "aug": 24.2,
      "sep": 21.1,
      "oct": 17.9,
      "nov": 13.8,
      "dec": 11.2,
      "yearly_avg": 16.4,
      "lat": 43.7384,
      "lng": 7.4246
    },
    {
      "id": 253,
      "city": "Podgorica",
      "country": "Montenegro",
      "continent": "Europe",
      "jan": 5.0,
      "feb": 6.8,
      "mar": 10.0,
      "apr": 13.9,
      "may": 19.0,
      "jun": 22.8,
      "jul": 26.0,
      "aug": 25.6,
      "sep": 21.4,
      "oct": 15.9,
      "nov": 10.5,
      "dec": 6.5,
      "yearly_avg": 15.3,
      "lat": 42.4304,
      "lng": 19.2594
    },
    {
      "id": 254,
      "city": "Amsterdam",
      "country": "Netherlands",
      "continent": "Europe",
      "jan": 3.4,
      "feb": 3.5,
      "mar": 6.1,
      "apr": 9.1,
      "may": 12.9,
      "jun": 15.4,
      "jul": 17.6,
      "aug": 17.5,
      "sep": 14.7,
      "oct": 11.0,
      "nov": 7.1,
      "dec": 4.0,
      "yearly_avg": 10.2,
      "lat": 52.3676,
      "lng": 4.9041
    },
    {
      "id": 255,
      "city": "Skopje",
      "country": "North Macedonia",
      "continent": "Europe",
      "jan": 0.1,
      "feb": 2.6,
      "mar": 7.6,
      "apr": 12.1,
      "may": 17.3,
      "jun": 21.5,
      "jul": 23.8,
      "aug": 23.8,
      "sep": 18.8,
      "oct": 13.1,
      "nov": 6.5,
      "dec": 1.7,
      "yearly_avg": 12.4,
      "lat": 41.9981,
      "lng": 21.4254
    },
    {
      "id": 256,
      "city": "Bergen",
      "country": "Norway",
      "continent": "Europe",
      "jan": 2.6,
      "feb": 2.4,
      "mar": 3.8,
      "apr": 7.1,
      "may": 10.6,
      "jun": 13.5,
      "jul": 15.5,
      "aug": 15.4,
      "sep": 12.7,
      "oct": 8.7,
      "nov": 5.3,
      "dec": 3.1,
      "yearly_avg": 7.7,
      "lat": 60.3913,
      "lng": 5.3221
    },
    {
      "id": 257,
      "city": "Oslo",
      "country": "Norway",
      "continent": "Europe",
      "jan": -4.3,
      "feb": -4.0,
      "mar": -0.2,
      "apr": 4.5,
      "may": 10.8,
      "jun": 15.2,
      "jul": 16.4,
      "aug": 15.2,
      "sep": 10.8,
      "oct": 6.3,
      "nov": 0.7,
      "dec": -3.1,
      "yearly_avg": 5.7,
      "lat": 59.9139,
      "lng": 10.7522
    },
    {
      "id": 258,
      "city": "Troms\u00f8",
      "country": "Norway",
      "continent": "Europe",
      "jan": -3.8,
      "feb": -3.7,
      "mar": -2.3,
      "apr": 0.7,
      "may": 5.1,
      "jun": 9.2,
      "jul": 11.8,
      "aug": 10.9,
      "sep": 6.9,
      "oct": 3.2,
      "nov": -0.6,
      "dec": -2.7,
      "yearly_avg": 2.9,
      "lat": 69.6492,
      "lng": 18.9553
    },
    {
      "id": 259,
      "city": "Krak\u00f3w",
      "country": "Poland",
      "continent": "Europe",
      "jan": -1.0,
      "feb": 0.4,
      "mar": 4.1,
      "apr": 9.8,
      "may": 14.6,
      "jun": 18.3,
      "jul": 20.0,
      "aug": 19.2,
      "sep": 14.1,
      "oct": 9.2,
      "nov": 4.4,
      "dec": 0.2,
      "yearly_avg": 9.3,
      "lat": 50.0647,
      "lng": 19.945
    },
    {
      "id": 261,
      "city": "Warsaw",
      "country": "Poland",
      "continent": "Europe",
      "jan": -1.8,
      "feb": -0.6,
      "mar": 2.8,
      "apr": 8.7,
      "may": 14.2,
      "jun": 17.0,
      "jul": 19.2,
      "aug": 18.3,
      "sep": 13.5,
      "oct": 8.5,
      "nov": 3.3,
      "dec": -0.7,
      "yearly_avg": 8.5,
      "lat": 52.2297,
      "lng": 21.0122
    },
    {
      "id": 263,
      "city": "Lisbon",
      "country": "Portugal",
      "continent": "Europe",
      "jan": 11.6,
      "feb": 12.7,
      "mar": 14.9,
      "apr": 15.9,
      "may": 18.0,
      "jun": 21.2,
      "jul": 23.1,
      "aug": 23.5,
      "sep": 22.1,
      "oct": 18.8,
      "nov": 15.0,
      "dec": 12.4,
      "yearly_avg": 17.5,
      "lat": 38.7223,
      "lng": -9.1393
    },
    {
      "id": 264,
      "city": "Porto",
      "country": "Portugal",
      "continent": "Europe",
      "jan": 10.2,
      "feb": 10.9,
      "mar": 13.5,
      "apr": 14.6,
      "may": 17.0,
      "jun": 19.5,
      "jul": 21.3,
      "aug": 21.4,
      "sep": 19.3,
      "oct": 16.6,
      "nov": 13.4,
      "dec": 11.0,
      "yearly_avg": 15.7,
      "lat": 41.1579,
      "lng": -8.6291
    },
    {
      "id": 265,
      "city": "Bucharest",
      "country": "Romania",
      "continent": "Europe",
      "jan": -1.3,
      "feb": 0.4,
      "mar": 5.4,
      "apr": 11.2,
      "may": 16.8,
      "jun": 20.6,
      "jul": 22.5,
      "aug": 22.0,
      "sep": 16.9,
      "oct": 11.0,
      "nov": 4.7,
      "dec": 0.2,
      "yearly_avg": 10.8,
      "lat": 44.4268,
      "lng": 26.1025
    },
    {
      "id": 266,
      "city": "Arkhangelsk",
      "country": "Russia",
      "continent": "Europe",
      "jan": -12.7,
      "feb": -11.4,
      "mar": -5.5,
      "apr": 0.4,
      "may": 6.9,
      "jun": 13.0,
      "jul": 16.3,
      "aug": 13.1,
      "sep": 8.2,
      "oct": 2.3,
      "nov": -5.1,
      "dec": -9.8,
      "yearly_avg": 1.3,
      "lat": 64.5401,
      "lng": 40.5433
    },
    {
      "id": 267,
      "city": "Moscow",
      "country": "Russia",
      "continent": "Europe",
      "jan": -6.5,
      "feb": -6.7,
      "mar": -1.0,
      "apr": 6.7,
      "may": 13.2,
      "jun": 17.0,
      "jul": 19.2,
      "aug": 17.0,
      "sep": 11.3,
      "oct": 5.6,
      "nov": -1.2,
      "dec": -5.2,
      "yearly_avg": 5.8,
      "lat": 55.7558,
      "lng": 37.6173
    },
    {
      "id": 268,
      "city": "Murmansk",
      "country": "Russia",
      "continent": "Europe",
      "jan": -10.1,
      "feb": -9.7,
      "mar": -5.5,
      "apr": -0.7,
      "may": 4.0,
      "jun": 9.2,
      "jul": 12.8,
      "aug": 11.1,
      "sep": 7.0,
      "oct": 1.5,
      "nov": -4.8,
      "dec": -8.2,
      "yearly_avg": 0.6,
      "lat": 68.9585,
      "lng": 33.0827
    },
    {
      "id": 270,
      "city": "Saint Petersburg",
      "country": "Russia",
      "continent": "Europe",
      "jan": -5.5,
      "feb": -5.8,
      "mar": -1.3,
      "apr": 5.1,
      "may": 11.3,
      "jun": 15.7,
      "jul": 18.8,
      "aug": 16.9,
      "sep": 11.6,
      "oct": 6.2,
      "nov": 0.1,
      "dec": -3.7,
      "yearly_avg": 5.8,
      "lat": 59.9311,
      "lng": 30.3609
    },
    {
      "id": 271,
      "city": "Sochi",
      "country": "Russia",
      "continent": "Europe",
      "jan": 6.1,
      "feb": 6.0,
      "mar": 8.2,
      "apr": 12.1,
      "may": 16.0,
      "jun": 20.2,
      "jul": 23.2,
      "aug": 23.6,
      "sep": 20.0,
      "oct": 15.8,
      "nov": 11.1,
      "dec": 8.1,
      "yearly_avg": 14.2,
      "lat": 43.6028,
      "lng": 39.7342
    },
    {
      "id": 273,
      "city": "Belgrade",
      "country": "Serbia",
      "continent": "Europe",
      "jan": 1.4,
      "feb": 3.1,
      "mar": 7.6,
      "apr": 12.9,
      "may": 18.1,
      "jun": 21.0,
      "jul": 23.0,
      "aug": 22.7,
      "sep": 18.0,
      "oct": 12.9,
      "nov": 7.1,
      "dec": 2.7,
      "yearly_avg": 12.5,
      "lat": 44.7866,
      "lng": 20.4489
    },
    {
      "id": 274,
      "city": "Bratislava",
      "country": "Slovakia",
      "continent": "Europe",
      "jan": 0.3,
      "feb": 1.9,
      "mar": 6.1,
      "apr": 11.7,
      "may": 16.2,
      "jun": 20.2,
      "jul": 22.0,
      "aug": 21.5,
      "sep": 16.2,
      "oct": 10.7,
      "nov": 5.7,
      "dec": 1.1,
      "yearly_avg": 11.1,
      "lat": 48.1486,
      "lng": 17.1077
    },
    {
      "id": 275,
      "city": "Ljubljana",
      "country": "Slovenia",
      "continent": "Europe",
      "jan": 0.3,
      "feb": 1.9,
      "mar": 6.5,
      "apr": 10.8,
      "may": 15.8,
      "jun": 19.1,
      "jul": 21.3,
      "aug": 20.6,
      "sep": 16.0,
      "oct": 11.2,
      "nov": 5.6,
      "dec": 1.2,
      "yearly_avg": 10.9,
      "lat": 46.0569,
      "lng": 14.5058
    },
    {
      "id": 276,
      "city": "Barcelona",
      "country": "Spain",
      "continent": "Europe",
      "jan": 11.3,
      "feb": 11.3,
      "mar": 13.1,
      "apr": 15.1,
      "may": 18.1,
      "jun": 21.9,
      "jul": 24.7,
      "aug": 25.2,
      "sep": 22.4,
      "oct": 19.1,
      "nov": 14.4,
      "dec": 11.9,
      "yearly_avg": 17.4,
      "lat": 41.3851,
      "lng": 2.1734
    },
    {
      "id": 278,
      "city": "Madrid",
      "country": "Spain",
      "continent": "Europe",
      "jan": 6.5,
      "feb": 8.0,
      "mar": 11.3,
      "apr": 13.6,
      "may": 17.5,
      "jun": 22.8,
      "jul": 26.2,
      "aug": 25.7,
      "sep": 21.0,
      "oct": 15.4,
      "nov": 10.0,
      "dec": 7.0,
      "yearly_avg": 15.4,
      "lat": 40.4168,
      "lng": -3.7038
    },
    {
      "id": 279,
      "city": "Seville",
      "country": "Spain",
      "continent": "Europe",
      "jan": 11.2,
      "feb": 12.7,
      "mar": 15.6,
      "apr": 17.8,
      "may": 21.6,
      "jun": 25.7,
      "jul": 28.5,
      "aug": 28.6,
      "sep": 25.0,
      "oct": 20.6,
      "nov": 15.2,
      "dec": 12.2,
      "yearly_avg": 19.6,
      "lat": 37.3891,
      "lng": -5.9845
    },
    {
      "id": 280,
      "city": "Valencia",
      "country": "Spain",
      "continent": "Europe",
      "jan": 12.1,
      "feb": 12.7,
      "mar": 14.7,
      "apr": 16.6,
      "may": 19.6,
      "jun": 23.3,
      "jul": 25.9,
      "aug": 26.5,
      "sep": 23.7,
      "oct": 20.1,
      "nov": 15.6,
      "dec": 12.8,
      "yearly_avg": 18.6,
      "lat": 39.4699,
      "lng": -0.3763
    },
    {
      "id": 281,
      "city": "Stockholm",
      "country": "Sweden",
      "continent": "Europe",
      "jan": -2.8,
      "feb": -3.0,
      "mar": 0.1,
      "apr": 4.6,
      "may": 10.7,
      "jun": 15.6,
      "jul": 17.2,
      "aug": 16.2,
      "sep": 11.9,
      "oct": 7.5,
      "nov": 2.6,
      "dec": -1.0,
      "yearly_avg": 6.6,
      "lat": 59.3293,
      "lng": 18.0686
    },
    {
      "id": 283,
      "city": "Istanbul",
      "country": "Turkey",
      "continent": "Europe",
      "jan": 5.7,
      "feb": 5.7,
      "mar": 7.0,
      "apr": 11.1,
      "may": 15.7,
      "jun": 20.4,
      "jul": 22.9,
      "aug": 23.1,
      "sep": 19.8,
      "oct": 15.6,
      "nov": 11.5,
      "dec": 8.0,
      "yearly_avg": 13.9,
      "lat": 41.0082,
      "lng": 28.9784
    },
    {
      "id": 284,
      "city": "Kyiv",
      "country": "Ukraine",
      "continent": "Europe",
      "jan": -3.5,
      "feb": -3.0,
      "mar": 1.8,
      "apr": 9.3,
      "may": 15.5,
      "jun": 18.5,
      "jul": 20.5,
      "aug": 19.7,
      "sep": 14.2,
      "oct": 8.4,
      "nov": 1.9,
      "dec": -2.3,
      "yearly_avg": 8.4,
      "lat": 50.4501,
      "lng": 30.5234
    },
    {
      "id": 286,
      "city": "Odesa",
      "country": "Ukraine",
      "continent": "Europe",
      "jan": -0.5,
      "feb": -0.2,
      "mar": 3.5,
      "apr": 9.4,
      "may": 15.6,
      "jun": 20.0,
      "jul": 22.6,
      "aug": 22.3,
      "sep": 17.2,
      "oct": 11.6,
      "nov": 5.7,
      "dec": 1.1,
      "yearly_avg": 10.7,
      "lat": 46.4825,
      "lng": 30.7233
    },
    {
      "id": 287,
      "city": "Edinburgh",
      "country": "United Kingdom",
      "continent": "Europe",
      "jan": 4.2,
      "feb": 4.5,
      "mar": 6.2,
      "apr": 8.1,
      "may": 10.8,
      "jun": 13.5,
      "jul": 15.3,
      "aug": 15.2,
      "sep": 13.0,
      "oct": 9.8,
      "nov": 6.7,
      "dec": 4.2,
      "yearly_avg": 9.3,
      "lat": 55.9533,
      "lng": -3.1883
    },
    {
      "id": 288,
      "city": "London",
      "country": "United Kingdom",
      "continent": "Europe",
      "jan": 5.2,
      "feb": 5.3,
      "mar": 7.6,
      "apr": 9.9,
      "may": 13.3,
      "jun": 16.5,
      "jul": 18.7,
      "aug": 18.5,
      "sep": 15.7,
      "oct": 12.0,
      "nov": 8.0,
      "dec": 5.5,
      "yearly_avg": 11.3,
      "lat": 51.5074,
      "lng": -0.1278
    },
    {
      "id": 292,
      "city": "Bridgetown",
      "country": "Barbados",
      "continent": "North America",
      "jan": 25.8,
      "feb": 25.7,
      "mar": 26.2,
      "apr": 26.8,
      "may": 27.6,
      "jun": 27.7,
      "jul": 27.6,
      "aug": 27.8,
      "sep": 27.7,
      "oct": 27.5,
      "nov": 27.0,
      "dec": 26.4,
      "yearly_avg": 27.0,
      "lat": 13.1132,
      "lng": -59.5988
    },
    {
      "id": 294,
      "city": "Hamilton",
      "country": "Bermuda",
      "continent": "North America",
      "jan": 18.3,
      "feb": 18.0,
      "mar": 18.2,
      "apr": 19.6,
      "may": 22.0,
      "jun": 25.0,
      "jul": 27.2,
      "aug": 27.6,
      "sep": 26.6,
      "oct": 24.4,
      "nov": 21.6,
      "dec": 19.5,
      "yearly_avg": 22.3,
      "lat": 32.2949,
      "lng": -64.781
    },
    {
      "id": 295,
      "city": "Alert",
      "country": "Canada",
      "continent": "North America",
      "jan": -30.7,
      "feb": -31.4,
      "mar": -31.0,
      "apr": -23.3,
      "may": -11.1,
      "jun": -0.1,
      "jul": 3.9,
      "aug": -1.2,
      "sep": -8.0,
      "oct": -17.2,
      "nov": -24.1,
      "dec": -28.1,
      "yearly_avg": -16.7,
      "lat": 82.5018,
      "lng": -62.3481
    },
    {
      "id": 296,
      "city": "Calgary",
      "country": "Canada",
      "continent": "North America",
      "jan": -7.6,
      "feb": -5.9,
      "mar": -2.2,
      "apr": 4.5,
      "may": 9.9,
      "jun": 13.7,
      "jul": 16.9,
      "aug": 16.2,
      "sep": 11.5,
      "oct": 4.9,
      "nov": -1.7,
      "dec": -6.3,
      "yearly_avg": 4.5,
      "lat": 51.0447,
      "lng": -114.0719
    },
    {
      "id": 297,
      "city": "Edmonton",
      "country": "Canada",
      "continent": "North America",
      "jan": -10.3,
      "feb": -7.9,
      "mar": -3.1,
      "apr": 4.9,
      "may": 11.6,
      "jun": 15.6,
      "jul": 18.1,
      "aug": 17.0,
      "sep": 11.9,
      "oct": 5.0,
      "nov": -3.5,
      "dec": -9.0,
      "yearly_avg": 4.2,
      "lat": 53.5461,
      "lng": -113.4938
    },
    {
      "id": 298,
      "city": "Gjoa Haven",
      "country": "Canada",
      "continent": "North America",
      "jan": -32.8,
      "feb": -33.4,
      "mar": -29.1,
      "apr": -20.2,
      "may": -9.0,
      "jun": 1.7,
      "jul": 8.3,
      "aug": 6.5,
      "sep": 0.4,
      "oct": -8.4,
      "nov": -20.7,
      "dec": -28.1,
      "yearly_avg": -13.7,
      "lat": 68.6356,
      "lng": -95.8503
    },
    {
      "id": 299,
      "city": "Halifax",
      "country": "Canada",
      "continent": "North America",
      "jan": -5.7,
      "feb": -5.2,
      "mar": -0.9,
      "apr": 4.5,
      "may": 10.1,
      "jun": 15.2,
      "jul": 19.2,
      "aug": 19.2,
      "sep": 15.2,
      "oct": 9.2,
      "nov": 3.8,
      "dec": -1.9,
      "yearly_avg": 6.9,
      "lat": 44.6488,
      "lng": -63.5752
    },
    {
      "id": 300,
      "city": "Iqaluit",
      "country": "Canada",
      "continent": "North America",
      "jan": -26.0,
      "feb": -27.0,
      "mar": -22.4,
      "apr": -13.5,
      "may": -3.2,
      "jun": 3.9,
      "jul": 8.1,
      "aug": 7.5,
      "sep": 2.9,
      "oct": -3.2,
      "nov": -11.1,
      "dec": -18.9,
      "yearly_avg": -8.6,
      "lat": 63.7467,
      "lng": -68.517
    },
    {
      "id": 302,
      "city": "Montreal",
      "country": "Canada",
      "continent": "North America",
      "jan": -9.2,
      "feb": -8.0,
      "mar": -2.0,
      "apr": 6.2,
      "may": 13.9,
      "jun": 19.0,
      "jul": 21.7,
      "aug": 20.6,
      "sep": 16.0,
      "oct": 8.9,
      "nov": 2.3,
      "dec": -5.0,
      "yearly_avg": 7.0,
      "lat": 45.5017,
      "lng": -73.5673
    },
    {
      "id": 303,
      "city": "Ottawa",
      "country": "Canada",
      "continent": "North America",
      "jan": -9.6,
      "feb": -8.1,
      "mar": -2.2,
      "apr": 6.2,
      "may": 13.8,
      "jun": 18.8,
      "jul": 21.3,
      "aug": 20.1,
      "sep": 15.6,
      "oct": 8.8,
      "nov": 2.0,
      "dec": -5.1,
      "yearly_avg": 6.8,
      "lat": 45.4215,
      "lng": -75.6972
    },
    {
      "id": 305,
      "city": "St. John's",
      "country": "Canada",
      "continent": "North America",
      "jan": -4.2,
      "feb": -4.7,
      "mar": -2.2,
      "apr": 1.8,
      "may": 6.3,
      "jun": 10.8,
      "jul": 16.0,
      "aug": 16.5,
      "sep": 12.8,
      "oct": 7.8,
      "nov": 3.4,
      "dec": -1.0,
      "yearly_avg": 5.3,
      "lat": 47.5615,
      "lng": -52.7126
    },
    {
      "id": 306,
      "city": "Toronto",
      "country": "Canada",
      "continent": "North America",
      "jan": -3.5,
      "feb": -2.7,
      "mar": 1.7,
      "apr": 7.8,
      "may": 14.5,
      "jun": 19.8,
      "jul": 22.5,
      "aug": 21.9,
      "sep": 17.9,
      "oct": 11.2,
      "nov": 5.2,
      "dec": -0.1,
      "yearly_avg": 9.7,
      "lat": 43.6532,
      "lng": -79.3832
    },
    {
      "id": 307,
      "city": "Vancouver",
      "country": "Canada",
      "continent": "North America",
      "jan": 4.1,
      "feb": 4.7,
      "mar": 6.7,
      "apr": 9.4,
      "may": 13.0,
      "jun": 15.8,
      "jul": 18.2,
      "aug": 18.2,
      "sep": 15.2,
      "oct": 10.3,
      "nov": 6.4,
      "dec": 3.9,
      "yearly_avg": 10.5,
      "lat": 49.2827,
      "lng": -123.1207
    },
    {
      "id": 308,
      "city": "Winnipeg",
      "country": "Canada",
      "continent": "North America",
      "jan": -16.3,
      "feb": -14.1,
      "mar": -6.1,
      "apr": 3.8,
      "may": 11.1,
      "jun": 17.1,
      "jul": 19.5,
      "aug": 18.7,
      "sep": 13.3,
      "oct": 5.1,
      "nov": -4.4,
      "dec": -13.7,
      "yearly_avg": 2.9,
      "lat": 49.8951,
      "lng": -97.1384
    },
    {
      "id": 309,
      "city": "Whitehorse",
      "country": "Canada",
      "continent": "North America",
      "jan": -15.0,
      "feb": -11.9,
      "mar": -6.7,
      "apr": 1.6,
      "may": 7.9,
      "jun": 12.8,
      "jul": 14.5,
      "aug": 12.9,
      "sep": 7.5,
      "oct": 0.8,
      "nov": -8.6,
      "dec": -12.8,
      "yearly_avg": 0.2,
      "lat": 60.7212,
      "lng": -135.0568
    },
    {
      "id": 310,
      "city": "Yellowknife",
      "country": "Canada",
      "continent": "North America",
      "jan": -25.5,
      "feb": -22.7,
      "mar": -16.6,
      "apr": -5.5,
      "may": 5.3,
      "jun": 13.8,
      "jul": 17.1,
      "aug": 14.5,
      "sep": 7.6,
      "oct": -1.0,
      "nov": -12.6,
      "dec": -21.8,
      "yearly_avg": -4.0,
      "lat": 62.454,
      "lng": -114.3718
    },
    {
      "id": 312,
      "city": "San Jos\u00e9",
      "country": "Costa Rica",
      "continent": "North America",
      "jan": 22.6,
      "feb": 23.0,
      "mar": 23.5,
      "apr": 23.7,
      "may": 22.9,
      "jun": 22.5,
      "jul": 22.6,
      "aug": 22.4,
      "sep": 22.0,
      "oct": 21.8,
      "nov": 21.9,
      "dec": 22.3,
      "yearly_avg": 22.6,
      "lat": 9.9281,
      "lng": -84.0907
    },
    {
      "id": 313,
      "city": "Havana",
      "country": "Cuba",
      "continent": "North America",
      "jan": 22.2,
      "feb": 22.4,
      "mar": 23.7,
      "apr": 24.8,
      "may": 26.1,
      "jun": 27.0,
      "jul": 27.6,
      "aug": 27.9,
      "sep": 27.4,
      "oct": 26.1,
      "nov": 24.5,
      "dec": 23.0,
      "yearly_avg": 25.2,
      "lat": 23.1136,
      "lng": -82.3666
    },
    {
      "id": 316,
      "city": "Santo Domingo",
      "country": "Dominican Republic",
      "continent": "North America",
      "jan": 24.4,
      "feb": 24.4,
      "mar": 24.9,
      "apr": 25.6,
      "may": 26.3,
      "jun": 26.9,
      "jul": 27.0,
      "aug": 27.1,
      "sep": 27.0,
      "oct": 26.7,
      "nov": 26.0,
      "dec": 24.9,
      "yearly_avg": 25.9,
      "lat": 18.4861,
      "lng": -69.9312
    },
    {
      "id": 317,
      "city": "San Salvador",
      "country": "El Salvador",
      "continent": "North America",
      "jan": 22.2,
      "feb": 22.8,
      "mar": 23.8,
      "apr": 24.5,
      "may": 24.2,
      "jun": 23.3,
      "jul": 23.3,
      "aug": 23.2,
      "sep": 22.8,
      "oct": 22.8,
      "nov": 22.4,
      "dec": 22.0,
      "yearly_avg": 23.1,
      "lat": 13.6929,
      "lng": -89.2182
    },
    {
      "id": 318,
      "city": "Nuuk",
      "country": "Greenland",
      "continent": "North America",
      "jan": -7.4,
      "feb": -7.8,
      "mar": -8.0,
      "apr": -3.8,
      "may": 0.6,
      "jun": 3.9,
      "jul": 6.5,
      "aug": 6.1,
      "sep": 3.5,
      "oct": -0.7,
      "nov": -3.7,
      "dec": -6.2,
      "yearly_avg": -1.4,
      "lat": 64.1814,
      "lng": -51.6941
    },
    {
      "id": 320,
      "city": "Guatemala City",
      "country": "Guatemala",
      "continent": "North America",
      "jan": 17.7,
      "feb": 20.7,
      "mar": 20.7,
      "apr": 23.4,
      "may": 23.9,
      "jun": 21.0,
      "jul": 20.8,
      "aug": 21.0,
      "sep": 20.7,
      "oct": 20.3,
      "nov": 19.4,
      "dec": 17.5,
      "yearly_avg": 20.4,
      "lat": 14.6349,
      "lng": -90.5069
    },
    {
      "id": 322,
      "city": "Tegucigalpa",
      "country": "Honduras",
      "continent": "North America",
      "jan": 19.5,
      "feb": 20.4,
      "mar": 22.1,
      "apr": 23.4,
      "may": 23.6,
      "jun": 22.6,
      "jul": 22.1,
      "aug": 22.4,
      "sep": 22.2,
      "oct": 21.5,
      "nov": 20.4,
      "dec": 19.7,
      "yearly_avg": 21.7,
      "lat": 14.0723,
      "lng": -87.1921
    },
    {
      "id": 323,
      "city": "Kingston",
      "country": "Jamaica",
      "continent": "North America",
      "jan": 25.8,
      "feb": 25.9,
      "mar": 26.4,
      "apr": 26.9,
      "may": 27.8,
      "jun": 28.5,
      "jul": 28.9,
      "aug": 28.7,
      "sep": 28.4,
      "oct": 27.7,
      "nov": 27.2,
      "dec": 26.7,
      "yearly_avg": 27.4,
      "lat": 18.0179,
      "lng": -76.8099
    },
    {
      "id": 325,
      "city": "Chihuahua",
      "country": "Mexico",
      "continent": "North America",
      "jan": 10.0,
      "feb": 12.9,
      "mar": 15.7,
      "apr": 19.2,
      "may": 23.6,
      "jun": 26.3,
      "jul": 25.6,
      "aug": 24.3,
      "sep": 22.6,
      "oct": 18.7,
      "nov": 13.7,
      "dec": 10.3,
      "yearly_avg": 18.6,
      "lat": 28.6353,
      "lng": -106.0889
    },
    {
      "id": 326,
      "city": "Guadalajara",
      "country": "Mexico",
      "continent": "North America",
      "jan": 17.1,
      "feb": 18.4,
      "mar": 20.7,
      "apr": 22.8,
      "may": 24.5,
      "jun": 23.9,
      "jul": 22.0,
      "aug": 21.9,
      "sep": 21.8,
      "oct": 21.0,
      "nov": 19.2,
      "dec": 17.5,
      "yearly_avg": 20.9,
      "lat": 20.6597,
      "lng": -103.3496
    },
    {
      "id": 329,
      "city": "Mexico City",
      "country": "Mexico",
      "continent": "North America",
      "jan": 14.6,
      "feb": 15.9,
      "mar": 18.1,
      "apr": 19.6,
      "may": 20.0,
      "jun": 19.4,
      "jul": 18.2,
      "aug": 18.3,
      "sep": 18.0,
      "oct": 17.1,
      "nov": 16.3,
      "dec": 15.0,
      "yearly_avg": 17.5,
      "lat": 19.4326,
      "lng": -99.1332
    },
    {
      "id": 330,
      "city": "Monterrey",
      "country": "Mexico",
      "continent": "North America",
      "jan": 14.4,
      "feb": 16.6,
      "mar": 20.0,
      "apr": 23.4,
      "may": 26.2,
      "jun": 27.9,
      "jul": 28.6,
      "aug": 28.5,
      "sep": 26.2,
      "oct": 22.4,
      "nov": 18.4,
      "dec": 15.1,
      "yearly_avg": 22.3,
      "lat": 25.6866,
      "lng": -100.3161
    },
    {
      "id": 331,
      "city": "Tijuana",
      "country": "Mexico",
      "continent": "North America",
      "jan": 13.6,
      "feb": 14.3,
      "mar": 14.8,
      "apr": 16.1,
      "may": 18.0,
      "jun": 19.8,
      "jul": 22.2,
      "aug": 22.8,
      "sep": 22.0,
      "oct": 19.5,
      "nov": 16.6,
      "dec": 14.0,
      "yearly_avg": 17.8,
      "lat": 32.5149,
      "lng": -117.0382
    },
    {
      "id": 333,
      "city": "Veracruz",
      "country": "Mexico",
      "continent": "North America",
      "jan": 21.5,
      "feb": 21.9,
      "mar": 24.0,
      "apr": 25.8,
      "may": 27.8,
      "jun": 28.1,
      "jul": 27.5,
      "aug": 27.6,
      "sep": 27.2,
      "oct": 26.2,
      "nov": 24.2,
      "dec": 22.6,
      "yearly_avg": 25.4,
      "lat": 19.1738,
      "lng": -96.1342
    },
    {
      "id": 335,
      "city": "Managua",
      "country": "Nicaragua",
      "continent": "North America",
      "jan": 26.3,
      "feb": 27.2,
      "mar": 28.5,
      "apr": 29.3,
      "may": 29.3,
      "jun": 27.2,
      "jul": 26.8,
      "aug": 27.2,
      "sep": 26.8,
      "oct": 26.5,
      "nov": 26.3,
      "dec": 26.2,
      "yearly_avg": 27.3,
      "lat": 12.115,
      "lng": -86.2362
    },
    {
      "id": 336,
      "city": "Panama City",
      "country": "Panama",
      "continent": "North America",
      "jan": 28.1,
      "feb": 28.1,
      "mar": 28.6,
      "apr": 28.9,
      "may": 28.3,
      "jun": 27.8,
      "jul": 27.8,
      "aug": 27.8,
      "sep": 27.2,
      "oct": 27.0,
      "nov": 27.2,
      "dec": 27.5,
      "yearly_avg": 28.1,
      "lat": 8.9824,
      "lng": -79.5199
    },
    {
      "id": 337,
      "city": "San Juan",
      "country": "Puerto Rico",
      "continent": "North America",
      "jan": 25.3,
      "feb": 25.5,
      "mar": 26.1,
      "apr": 26.8,
      "may": 27.7,
      "jun": 28.5,
      "jul": 28.6,
      "aug": 28.7,
      "sep": 28.6,
      "oct": 28.1,
      "nov": 27.0,
      "dec": 24.8,
      "yearly_avg": 27.2,
      "lat": 18.4655,
      "lng": -66.1057
    },
    {
      "id": 339,
      "city": "Albuquerque",
      "country": "United States",
      "continent": "North America",
      "jan": 3.0,
      "feb": 5.5,
      "mar": 9.7,
      "apr": 13.8,
      "may": 18.9,
      "jun": 24.5,
      "jul": 26.1,
      "aug": 24.9,
      "sep": 21.3,
      "oct": 14.7,
      "nov": 7.6,
      "dec": 2.7,
      "yearly_avg": 14.4,
      "lat": 35.0844,
      "lng": -106.6504
    },
    {
      "id": 340,
      "city": "Anchorage",
      "country": "United States",
      "continent": "North America",
      "jan": -8.4,
      "feb": -5.9,
      "mar": -3.4,
      "apr": 3.1,
      "may": 8.9,
      "jun": 13.3,
      "jul": 15.3,
      "aug": 14.2,
      "sep": 9.6,
      "oct": 2.4,
      "nov": -4.7,
      "dec": -7.0,
      "yearly_avg": 3.1,
      "lat": 61.2181,
      "lng": -149.9003
    },
    {
      "id": 341,
      "city": "Atlanta",
      "country": "United States",
      "continent": "North America",
      "jan": 7.1,
      "feb": 9.2,
      "mar": 13.1,
      "apr": 17.3,
      "may": 21.8,
      "jun": 25.5,
      "jul": 27.2,
      "aug": 26.8,
      "sep": 23.8,
      "oct": 18.2,
      "nov": 12.3,
      "dec": 8.5,
      "yearly_avg": 17.6,
      "lat": 33.749,
      "lng": -84.388
    },
    {
      "id": 342,
      "city": "Austin",
      "country": "United States",
      "continent": "North America",
      "jan": 11.2,
      "feb": 13.4,
      "mar": 17.1,
      "apr": 20.9,
      "may": 24.9,
      "jun": 28.3,
      "jul": 29.9,
      "aug": 30.3,
      "sep": 27.1,
      "oct": 22.0,
      "nov": 16.1,
      "dec": 12.0,
      "yearly_avg": 21.1,
      "lat": 30.2672,
      "lng": -97.7431
    },
    {
      "id": 343,
      "city": "Baltimore",
      "country": "United States",
      "continent": "North America",
      "jan": 1.3,
      "feb": 2.6,
      "mar": 6.8,
      "apr": 12.8,
      "may": 18.0,
      "jun": 23.1,
      "jul": 25.7,
      "aug": 24.6,
      "sep": 20.7,
      "oct": 14.1,
      "nov": 8.3,
      "dec": 3.7,
      "yearly_avg": 13.4,
      "lat": 39.2904,
      "lng": -76.6122
    },
    {
      "id": 345,
      "city": "Boston",
      "country": "United States",
      "continent": "North America",
      "jan": -1.2,
      "feb": -0.1,
      "mar": 3.5,
      "apr": 9.2,
      "may": 14.7,
      "jun": 20.0,
      "jul": 23.4,
      "aug": 22.6,
      "sep": 18.7,
      "oct": 12.7,
      "nov": 7.1,
      "dec": 2.1,
      "yearly_avg": 11.1,
      "lat": 42.3601,
      "lng": -71.0589
    },
    {
      "id": 346,
      "city": "Charlotte",
      "country": "United States",
      "continent": "North America",
      "jan": 5.6,
      "feb": 7.6,
      "mar": 11.5,
      "apr": 16.2,
      "may": 20.6,
      "jun": 24.8,
      "jul": 26.7,
      "aug": 25.9,
      "sep": 22.6,
      "oct": 16.6,
      "nov": 10.8,
      "dec": 7.1,
      "yearly_avg": 16.3,
      "lat": 35.2271,
      "lng": -80.8431
    },
    {
      "id": 347,
      "city": "Chicago",
      "country": "United States",
      "continent": "North America",
      "jan": -3.2,
      "feb": -1.2,
      "mar": 4.4,
      "apr": 10.5,
      "may": 16.6,
      "jun": 22.2,
      "jul": 24.8,
      "aug": 23.9,
      "sep": 19.9,
      "oct": 12.9,
      "nov": 5.8,
      "dec": -0.3,
      "yearly_avg": 11.3,
      "lat": 41.8781,
      "lng": -87.6298
    },
    {
      "id": 348,
      "city": "Columbus",
      "country": "United States",
      "continent": "North America",
      "jan": -1.3,
      "feb": 0.3,
      "mar": 5.3,
      "apr": 11.8,
      "may": 17.4,
      "jun": 22.2,
      "jul": 24.1,
      "aug": 23.3,
      "sep": 19.6,
      "oct": 12.9,
      "nov": 6.4,
      "dec": 1.4,
      "yearly_avg": 11.9,
      "lat": 39.9612,
      "lng": -82.9988
    },
    {
      "id": 349,
      "city": "Dallas",
      "country": "United States",
      "continent": "North America",
      "jan": 8.8,
      "feb": 11.1,
      "mar": 15.3,
      "apr": 19.5,
      "may": 24.1,
      "jun": 28.5,
      "jul": 30.7,
      "aug": 30.7,
      "sep": 26.7,
      "oct": 20.6,
      "nov": 14.3,
      "dec": 9.7,
      "yearly_avg": 20.0,
      "lat": 32.7767,
      "lng": -96.797
    },
    {
      "id": 350,
      "city": "Denver",
      "country": "United States",
      "continent": "North America",
      "jan": -0.2,
      "feb": 0.4,
      "mar": 5.3,
      "apr": 8.8,
      "may": 14.1,
      "jun": 20.1,
      "jul": 23.9,
      "aug": 22.7,
      "sep": 18.2,
      "oct": 10.6,
      "nov": 4.1,
      "dec": -0.4,
      "yearly_avg": 10.7,
      "lat": 39.7392,
      "lng": -104.9903
    },
    {
      "id": 351,
      "city": "Detroit",
      "country": "United States",
      "continent": "North America",
      "jan": -3.4,
      "feb": -2.2,
      "mar": 2.9,
      "apr": 9.4,
      "may": 15.7,
      "jun": 21.1,
      "jul": 23.4,
      "aug": 22.4,
      "sep": 18.3,
      "oct": 11.7,
      "nov": 5.1,
      "dec": -0.4,
      "yearly_avg": 10.3,
      "lat": 42.3314,
      "lng": -83.0458
    },
    {
      "id": 352,
      "city": "El Paso",
      "country": "United States",
      "continent": "North America",
      "jan": 8.1,
      "feb": 10.8,
      "mar": 14.8,
      "apr": 19.2,
      "may": 24.1,
      "jun": 28.8,
      "jul": 29.1,
      "aug": 28.3,
      "sep": 24.9,
      "oct": 19.3,
      "nov": 12.5,
      "dec": 7.8,
      "yearly_avg": 19.0,
      "lat": 31.7619,
      "lng": -106.485
    },
    {
      "id": 353,
      "city": "Fairbanks",
      "country": "United States",
      "continent": "North America",
      "jan": -22.4,
      "feb": -17.7,
      "mar": -11.8,
      "apr": 0.9,
      "may": 10.2,
      "jun": 16.1,
      "jul": 17.2,
      "aug": 13.9,
      "sep": 7.7,
      "oct": -3.2,
      "nov": -15.5,
      "dec": -20.2,
      "yearly_avg": -2.1,
      "lat": 64.8378,
      "lng": -147.7164
    },
    {
      "id": 355,
      "city": "Houston",
      "country": "United States",
      "continent": "North America",
      "jan": 11.5,
      "feb": 13.3,
      "mar": 16.9,
      "apr": 20.7,
      "may": 24.8,
      "jun": 27.7,
      "jul": 28.9,
      "aug": 29.0,
      "sep": 26.3,
      "oct": 21.7,
      "nov": 16.6,
      "dec": 12.3,
      "yearly_avg": 20.8,
      "lat": 29.7604,
      "lng": -95.3698
    },
    {
      "id": 356,
      "city": "Indianapolis",
      "country": "United States",
      "continent": "North America",
      "jan": -2.2,
      "feb": 0.1,
      "mar": 5.7,
      "apr": 11.8,
      "may": 17.2,
      "jun": 22.3,
      "jul": 24.2,
      "aug": 23.5,
      "sep": 19.5,
      "oct": 12.9,
      "nov": 6.6,
      "dec": -0.1,
      "yearly_avg": 11.8,
      "lat": 39.7684,
      "lng": -86.1581
    },
    {
      "id": 357,
      "city": "Jacksonville",
      "country": "United States",
      "continent": "North America",
      "jan": 11.7,
      "feb": 13.6,
      "mar": 16.5,
      "apr": 19.4,
      "may": 23.4,
      "jun": 26.7,
      "jul": 27.9,
      "aug": 27.6,
      "sep": 25.7,
      "oct": 21.3,
      "nov": 16.8,
      "dec": 12.9,
      "yearly_avg": 20.3,
      "lat": 30.3322,
      "lng": -81.6557
    },